{
"type": "FeatureCollection",
"name": "CTLWsites",
"crs": { "type": "name", "properties": { "name": "urn:ogc:def:crs:OGC:1.3:CRS84" } },
"features": [
{ "type": "Feature", "properties": { "MonitoringLocationName": "Amos Lake, New London County, CT, USA", "MonitoringLocationIdentifier": "CTVOLMON-CT-11-1" }, "geometry": { "type": "Point", "coordinates": [ -71.9757, 41.5172 ] } },
{ "type": "Feature", "properties": { "MonitoringLocationName": "Long Pond, New London County, CT, USA", "MonitoringLocationIdentifier": "CTVOLMON-CT-11-11" }, "geometry": { "type": "Point", "coordinates": [ -71.94514, 41.441207 ] } },
{ "type": "Feature", "properties": { "MonitoringLocationName": "Bush Pond, New London County, CT, USA", "MonitoringLocationIdentifier": "CTVOLMON-CT-11-20" }, "geometry": { "type": "Point", "coordinates": [ -71.94304, 41.43811 ] } },
{ "type": "Feature", "properties": { "MonitoringLocationName": "Pattagansett Lake, New London County, CT, USA", "MonitoringLocationIdentifier": "CTVOLMON-CT-11-5" }, "geometry": { "type": "Point", "coordinates": [ -72.229267, 41.373717 ] } },
{ "type": "Feature", "properties": { "MonitoringLocationName": "Williams Pond, New London County, CT, USA", "MonitoringLocationIdentifier": "CTVOLMON-CT-11-9" }, "geometry": { "type": "Point", "coordinates": [ -72.3094, 41.6378 ] } },
{ "type": "Feature", "properties": { "MonitoringLocationName": "Mansfield Hollow Lake, Tolland County, CT, USA", "MonitoringLocationIdentifier": "CTVOLMON-CT-13-22" }, "geometry": { "type": "Point", "coordinates": [ -72.17399, 41.7687 ] } },
{ "type": "Feature", "properties": { "MonitoringLocationName": "Lake Candlewood, Fairfield County, CT, USA", "MonitoringLocationIdentifier": "CTVOLMON-CT-1-38" }, "geometry": { "type": "Point", "coordinates": [ -73.47654, 41.55615 ] } },
{ "type": "Feature", "properties": { "MonitoringLocationName": "Lake Kenosia, Fairfield County, CT, USA", "MonitoringLocationIdentifier": "CTVOLMON-CT-1-46" }, "geometry": { "type": "Point", "coordinates": [ -73.505868, 41.38568 ] } },
{ "type": "Feature", "properties": { "MonitoringLocationName": "West Thompson Lake, Windham County, CT, USA", "MonitoringLocationIdentifier": "CTVOLMON-CT-15-17" }, "geometry": { "type": "Point", "coordinates": [ -71.90316, 41.95476 ] } },
{ "type": "Feature", "properties": { "MonitoringLocationName": "Rainbow Pond, Hartford County, CT, USA", "MonitoringLocationIdentifier": "CTVOLMON-CT-3-5" }, "geometry": { "type": "Point", "coordinates": [ -72.723504, 41.894441 ] } },
{ "type": "Feature", "properties": { "MonitoringLocationName": "Bantam Lake, Litchfield County, CT, USA", "MonitoringLocationIdentifier": "CTVOLMON-CT-5-1" }, "geometry": { "type": "Point", "coordinates": [ -73.21155, 41.71087 ] } },
{ "type": "Feature", "properties": { "MonitoringLocationName": "Washining Lake, Litchfield County, CT, USA", "MonitoringLocationIdentifier": "CTVOLMON-CT-5-6" }, "geometry": { "type": "Point", "coordinates": [ -73.38319, 42.02581 ] } },
{ "type": "Feature", "properties": { "MonitoringLocationName": "Bashan Lake, Middlesex County, CT, USA", "MonitoringLocationIdentifier": "CTVOLMON-CT-7-1" }, "geometry": { "type": "Point", "coordinates": [ -72.423162, 41.494921 ] } },
{ "type": "Feature", "properties": { "MonitoringLocationName": "Beseck Lake, Middlesex County, CT, USA", "MonitoringLocationIdentifier": "CTVOLMON-CT-7-2" }, "geometry": { "type": "Point", "coordinates": [ -72.730622, 41.511873 ] } },
{ "type": "Feature", "properties": { "MonitoringLocationName": "West Lake, New Haven County, CT, USA", "MonitoringLocationIdentifier": "CTVOLMON-CT-9-10" }, "geometry": { "type": "Point", "coordinates": [ -72.73406, 41.33953 ] } },
{ "type": "Feature", "properties": { "MonitoringLocationName": "Bolton Lake, Tolland County, CT, USA", "MonitoringLocationIdentifier": "NALMS-F1771176" }, "geometry": { "type": "Point", "coordinates": [ -72.432, 41.802 ] } },
{ "type": "Feature", "properties": { "MonitoringLocationName": "Upper Bolton Lake, Tolland County, CT, USA", "MonitoringLocationIdentifier": "NALMS-F1771480" }, "geometry": { "type": "Point", "coordinates": [ -72.427, 41.813 ] } },
{ "type": "Feature", "properties": { "MonitoringLocationName": "Witches Woods Lake, Windham County, CT, USA", "MonitoringLocationIdentifier": "NALMS-F1924851" }, "geometry": { "type": "Point", "coordinates": [ -72.068, 41.954 ] } },
{ "type": "Feature", "properties": { "MonitoringLocationName": "Alexander Lake, Windham County, CT, USA", "MonitoringLocationIdentifier": "NALMS-F205058" }, "geometry": { "type": "Point", "coordinates": [ -71.901, 41.859 ] } },
{ "type": "Feature", "properties": { "MonitoringLocationName": "Andover Lake, Tolland County, CT, USA", "MonitoringLocationIdentifier": "NALMS-F205095" }, "geometry": { "type": "Point", "coordinates": [ -72.357, 41.718 ] } },
{ "type": "Feature", "properties": { "MonitoringLocationName": "Ashford Lake, Windham County, CT, USA", "MonitoringLocationIdentifier": "NALMS-F205133" }, "geometry": { "type": "Point", "coordinates": [ -72.128, 41.9 ] } },
{ "type": "Feature", "properties": { "MonitoringLocationName": "Ball Pond, Fairfield County, CT, USA", "MonitoringLocationIdentifier": "NALMS-F205234" }, "geometry": { "type": "Point", "coordinates": [ -73.524, 41.464 ] } },
{ "type": "Feature", "properties": { "MonitoringLocationName": "Bolton Lakes, Tolland County, CT, USA", "MonitoringLocationIdentifier": "NALMS-F205628" }, "geometry": { "type": "Point", "coordinates": [ -72.427, 41.813 ] } },
{ "type": "Feature", "properties": { "MonitoringLocationName": "Crystal Pond, Windham County, CT, USA, 41.9229226, -72.0994186", "MonitoringLocationIdentifier": "NALMS-F206556" }, "geometry": { "type": "Point", "coordinates": [ -72.099, 41.923 ] } },
{ "type": "Feature", "properties": { "MonitoringLocationName": "Doaneville Pond, New London County, CT, USA", "MonitoringLocationIdentifier": "NALMS-F206703" }, "geometry": { "type": "Point", "coordinates": [ -71.875, 41.565 ] } },
{ "type": "Feature", "properties": { "MonitoringLocationName": "Glasgo Pond, New London County, CT, USA", "MonitoringLocationIdentifier": "NALMS-F207318" }, "geometry": { "type": "Point", "coordinates": [ -71.882, 41.561 ] } },
{ "type": "Feature", "properties": { "MonitoringLocationName": "Pachaug Pond, New London County, CT, USA", "MonitoringLocationIdentifier": "NALMS-F209579" }, "geometry": { "type": "Point", "coordinates": [ -71.908, 41.566 ] } },
{ "type": "Feature", "properties": { "MonitoringLocationName": "Roseland Lake, Windham County, CT, USA", "MonitoringLocationIdentifier": "NALMS-F210299" }, "geometry": { "type": "Point", "coordinates": [ -71.951, 41.951 ] } },
{ "type": "Feature", "properties": { "MonitoringLocationName": "Somersville Pond, Tolland County, CT, USA", "MonitoringLocationIdentifier": "NALMS-F210953" }, "geometry": { "type": "Point", "coordinates": [ -72.48, 41.982 ] } },
{ "type": "Feature", "properties": { "MonitoringLocationName": "Washinee Lake, Litchfield County, CT, USA", "MonitoringLocationIdentifier": "NALMS-F211827" }, "geometry": { "type": "Point", "coordinates": [ -73.398, 42.017 ] } },
{ "type": "Feature", "properties": { "MonitoringLocationName": "Wononskopomuc Lake, Litchfield County, CT, USA", "MonitoringLocationIdentifier": "NALMS-F212226" }, "geometry": { "type": "Point", "coordinates": [ -73.446, 41.956 ] } },
{ "type": "Feature", "properties": { "MonitoringLocationName": "Wangumbaug Lake, Tolland County, CT, USA", "MonitoringLocationIdentifier": "NALMS-F212663" }, "geometry": { "type": "Point", "coordinates": [ -72.324, 41.773 ] } },
{ "type": "Feature", "properties": { "MonitoringLocationName": "Hurds Lake, Tolland County, CT, USA", "MonitoringLocationIdentifier": "NALMS-F212867" }, "geometry": { "type": "Point", "coordinates": [ -72.406, 42.02 ] } }
]
}
