{
"type": "FeatureCollection",
"name": "RBVmetrics",
"crs": { "type": "name", "properties": { "name": "urn:ogc:def:crs:OGC:1.3:CRS84" } },
"features": [
{ "type": "Feature", "properties": { "MonitoringLocationIdentifier": "14126", "MonitoringLocationName": "Aspetuck River", "MaxScore": 2, "MaxScoreYear": 2007.0, "RecentScore": 1, "RecentYear": 2013.0 }, "geometry": { "type": "Point", "coordinates": [ -73.3429, 41.1864 ] } },
{ "type": "Feature", "properties": { "MonitoringLocationIdentifier": "14129", "MonitoringLocationName": "Beacon Hill Brook", "MaxScore": 4, "MaxScoreYear": 2000.0, "RecentScore": 4, "RecentYear": 2000.0 }, "geometry": { "type": "Point", "coordinates": [ -73.0501, 41.4684 ] } },
{ "type": "Feature", "properties": { "MonitoringLocationIdentifier": "14137", "MonitoringLocationName": "Blackledge River", "MaxScore": 5, "MaxScoreYear": 2012.0, "RecentScore": 4, "RecentYear": 2020.0 }, "geometry": { "type": "Point", "coordinates": [ -72.4263, 41.6084 ] } },
{ "type": "Feature", "properties": { "MonitoringLocationIdentifier": "14138", "MonitoringLocationName": "Bladens River (Bladdens River)", "MaxScore": 1, "MaxScoreYear": 2000.0, "RecentScore": 0, "RecentYear": 2006.0 }, "geometry": { "type": "Point", "coordinates": [ -73.0718, 41.3972 ] } },
{ "type": "Feature", "properties": { "MonitoringLocationIdentifier": "14150", "MonitoringLocationName": "Byram River", "MaxScore": 1, "MaxScoreYear": 2011.0, "RecentScore": 1, "RecentYear": 2011.0 }, "geometry": { "type": "Point", "coordinates": [ -73.6621, 41.0276 ] } },
{ "type": "Feature", "properties": { "MonitoringLocationIdentifier": "14157", "MonitoringLocationName": "Cooper Pond Brook", "MaxScore": 2, "MaxScoreYear": 2010.0, "RecentScore": 2, "RecentYear": 2010.0 }, "geometry": { "type": "Point", "coordinates": [ -73.4422, 41.2677 ] } },
{ "type": "Feature", "properties": { "MonitoringLocationIdentifier": "14168", "MonitoringLocationName": "Deep Brook", "MaxScore": 4, "MaxScoreYear": 2006.0, "RecentScore": 2, "RecentYear": 2006.0 }, "geometry": { "type": "Point", "coordinates": [ -73.2855, 41.4096 ] } },
{ "type": "Feature", "properties": { "MonitoringLocationIdentifier": "14171", "MonitoringLocationName": "Deep Brook", "MaxScore": 1, "MaxScoreYear": 2017.0, "RecentScore": 1, "RecentYear": 2017.0 }, "geometry": { "type": "Point", "coordinates": [ -73.2848, 41.4115 ] } },
{ "type": "Feature", "properties": { "MonitoringLocationIdentifier": "14172", "MonitoringLocationName": "Deep Brook", "MaxScore": 4, "MaxScoreYear": 2009.0, "RecentScore": 0, "RecentYear": 2014.0 }, "geometry": { "type": "Point", "coordinates": [ -73.2823, 41.4131 ] } },
{ "type": "Feature", "properties": { "MonitoringLocationIdentifier": "14174", "MonitoringLocationName": "East Branch Eightmile River", "MaxScore": 6, "MaxScoreYear": 2001.0, "RecentScore": 6, "RecentYear": 2002.0 }, "geometry": { "type": "Point", "coordinates": [ -72.3375, 41.4309 ] } },
{ "type": "Feature", "properties": { "MonitoringLocationIdentifier": "14186", "MonitoringLocationName": "Eightmile Brook", "MaxScore": 5, "MaxScoreYear": 2005.0, "RecentScore": 5, "RecentYear": 2007.0 }, "geometry": { "type": "Point", "coordinates": [ -73.1648, 41.3885 ] } },
{ "type": "Feature", "properties": { "MonitoringLocationIdentifier": "14187", "MonitoringLocationName": "Eightmile River", "MaxScore": 7, "MaxScoreYear": 2002.0, "RecentScore": 7, "RecentYear": 2002.0 }, "geometry": { "type": "Point", "coordinates": [ -72.3376, 41.4312 ] } },
{ "type": "Feature", "properties": { "MonitoringLocationIdentifier": "14189", "MonitoringLocationName": "Eightmile River", "MaxScore": 3, "MaxScoreYear": 2000.0, "RecentScore": 3, "RecentYear": 2000.0 }, "geometry": { "type": "Point", "coordinates": [ -72.9042, 41.6066 ] } },
{ "type": "Feature", "properties": { "MonitoringLocationIdentifier": "14195", "MonitoringLocationName": "Farmill River", "MaxScore": 1, "MaxScoreYear": 2007.0, "RecentScore": 1, "RecentYear": 2007.0 }, "geometry": { "type": "Point", "coordinates": [ -73.0979, 41.2591 ] } },
{ "type": "Feature", "properties": { "MonitoringLocationIdentifier": "14199", "MonitoringLocationName": "Fenton River", "MaxScore": 3, "MaxScoreYear": 2009.0, "RecentScore": 3, "RecentYear": 2009.0 }, "geometry": { "type": "Point", "coordinates": [ -72.2402, 41.863 ] } },
{ "type": "Feature", "properties": { "MonitoringLocationIdentifier": "14221", "MonitoringLocationName": "Hammonasset River", "MaxScore": 4, "MaxScoreYear": 2009.0, "RecentScore": 4, "RecentYear": 2009.0 }, "geometry": { "type": "Point", "coordinates": [ -72.6116, 41.3278 ] } },
{ "type": "Feature", "properties": { "MonitoringLocationIdentifier": "14226", "MonitoringLocationName": "Harbor Brook", "MaxScore": 1, "MaxScoreYear": 2001.0, "RecentScore": 0, "RecentYear": 2007.0 }, "geometry": { "type": "Point", "coordinates": [ -72.8218, 41.5314 ] } },
{ "type": "Feature", "properties": { "MonitoringLocationIdentifier": "14230", "MonitoringLocationName": "Hockanum Brook", "MaxScore": 2, "MaxScoreYear": 2000.0, "RecentScore": 2, "RecentYear": 2001.0 }, "geometry": { "type": "Point", "coordinates": [ -73.0593, 41.4366 ] } },
{ "type": "Feature", "properties": { "MonitoringLocationIdentifier": "14235", "MonitoringLocationName": "Hockanum River", "MaxScore": 1, "MaxScoreYear": 2001.0, "RecentScore": 1, "RecentYear": 2001.0 }, "geometry": { "type": "Point", "coordinates": [ -72.5912, 41.7822 ] } },
{ "type": "Feature", "properties": { "MonitoringLocationIdentifier": "14237", "MonitoringLocationName": "Hockanum River", "MaxScore": 0, "MaxScoreYear": 2008.0, "RecentScore": 0, "RecentYear": 2008.0 }, "geometry": { "type": "Point", "coordinates": [ -72.5569, 41.7859 ] } },
{ "type": "Feature", "properties": { "MonitoringLocationIdentifier": "14238", "MonitoringLocationName": "Hockanum River", "MaxScore": 3, "MaxScoreYear": 2002.0, "RecentScore": 3, "RecentYear": 2002.0 }, "geometry": { "type": "Point", "coordinates": [ -72.4743, 41.8758 ] } },
{ "type": "Feature", "properties": { "MonitoringLocationIdentifier": "14242", "MonitoringLocationName": "Hockanum River", "MaxScore": 0, "MaxScoreYear": 2005.0, "RecentScore": 0, "RecentYear": 2005.0 }, "geometry": { "type": "Point", "coordinates": [ -72.5035, 41.8195 ] } },
{ "type": "Feature", "properties": { "MonitoringLocationIdentifier": "14244", "MonitoringLocationName": "Hockanum River", "MaxScore": 0, "MaxScoreYear": 2008.0, "RecentScore": 0, "RecentYear": 2008.0 }, "geometry": { "type": "Point", "coordinates": [ -72.5503, 41.7883 ] } },
{ "type": "Feature", "properties": { "MonitoringLocationIdentifier": "14260", "MonitoringLocationName": "Jeremy River", "MaxScore": 3, "MaxScoreYear": 2011.0, "RecentScore": 3, "RecentYear": 2011.0 }, "geometry": { "type": "Point", "coordinates": [ -72.4028, 41.5799 ] } },
{ "type": "Feature", "properties": { "MonitoringLocationIdentifier": "14275", "MonitoringLocationName": "Little River", "MaxScore": 2, "MaxScoreYear": 2010.0, "RecentScore": 2, "RecentYear": 2013.0 }, "geometry": { "type": "Point", "coordinates": [ -71.9331, 41.928 ] } },
{ "type": "Feature", "properties": { "MonitoringLocationIdentifier": "14276", "MonitoringLocationName": "Little River", "MaxScore": 2, "MaxScoreYear": 2012.0, "RecentScore": 2, "RecentYear": 2017.0 }, "geometry": { "type": "Point", "coordinates": [ -71.9315, 41.928 ] } },
{ "type": "Feature", "properties": { "MonitoringLocationIdentifier": "14279", "MonitoringLocationName": "Little River", "MaxScore": 1, "MaxScoreYear": 2000.0, "RecentScore": 1, "RecentYear": 2001.0 }, "geometry": { "type": "Point", "coordinates": [ -73.0767, 41.3965 ] } },
{ "type": "Feature", "properties": { "MonitoringLocationIdentifier": "14290", "MonitoringLocationName": "Menunketesuck River", "MaxScore": 3, "MaxScoreYear": 2006.0, "RecentScore": 3, "RecentYear": 2006.0 }, "geometry": { "type": "Point", "coordinates": [ -72.5405, 41.3565 ] } },
{ "type": "Feature", "properties": { "MonitoringLocationIdentifier": "14305", "MonitoringLocationName": "Muddy Brook", "MaxScore": 6, "MaxScoreYear": 2021.0, "RecentScore": 6, "RecentYear": 2021.0 }, "geometry": { "type": "Point", "coordinates": [ -72.0017, 42.0147 ] } },
{ "type": "Feature", "properties": { "MonitoringLocationIdentifier": "14314", "MonitoringLocationName": "Natchaug River", "MaxScore": 7, "MaxScoreYear": 2000.0, "RecentScore": 3, "RecentYear": 2012.0 }, "geometry": { "type": "Point", "coordinates": [ -72.1182, 41.8008 ] } },
{ "type": "Feature", "properties": { "MonitoringLocationIdentifier": "14355", "MonitoringLocationName": "Nonewaug River", "MaxScore": 4, "MaxScoreYear": 2007.0, "RecentScore": 3, "RecentYear": 2013.0 }, "geometry": { "type": "Point", "coordinates": [ -73.2122, 41.5575 ] } },
{ "type": "Feature", "properties": { "MonitoringLocationIdentifier": "14389", "MonitoringLocationName": "Pequabuck River", "MaxScore": 1, "MaxScoreYear": 1999.0, "RecentScore": 1, "RecentYear": 1999.0 }, "geometry": { "type": "Point", "coordinates": [ -72.9936, 41.6693 ] } },
{ "type": "Feature", "properties": { "MonitoringLocationIdentifier": "14392", "MonitoringLocationName": "Pequabuck River", "MaxScore": 0, "MaxScoreYear": 1999.0, "RecentScore": 0, "RecentYear": 1999.0 }, "geometry": { "type": "Point", "coordinates": [ -72.8977, 41.6738 ] } },
{ "type": "Feature", "properties": { "MonitoringLocationIdentifier": "14396", "MonitoringLocationName": "Pine Brook", "MaxScore": 6, "MaxScoreYear": 2024.0, "RecentScore": 6, "RecentYear": 2024.0 }, "geometry": { "type": "Point", "coordinates": [ -72.4952, 41.5079 ] } },
{ "type": "Feature", "properties": { "MonitoringLocationIdentifier": "14400", "MonitoringLocationName": "Pocotopaug Creek", "MaxScore": 1, "MaxScoreYear": 2004.0, "RecentScore": 1, "RecentYear": 2004.0 }, "geometry": { "type": "Point", "coordinates": [ -72.5069, 41.565 ] } },
{ "type": "Feature", "properties": { "MonitoringLocationIdentifier": "14406", "MonitoringLocationName": "Pootatuck River", "MaxScore": 6, "MaxScoreYear": 2006.0, "RecentScore": 4, "RecentYear": 2019.0 }, "geometry": { "type": "Point", "coordinates": [ -73.272, 41.4064 ] } },
{ "type": "Feature", "properties": { "MonitoringLocationIdentifier": "14407", "MonitoringLocationName": "Pootatuck River", "MaxScore": 3, "MaxScoreYear": 2006.0, "RecentScore": 3, "RecentYear": 2006.0 }, "geometry": { "type": "Point", "coordinates": [ -73.2823, 41.4142 ] } },
{ "type": "Feature", "properties": { "MonitoringLocationIdentifier": "14413", "MonitoringLocationName": "Quinnipiac River", "MaxScore": 1, "MaxScoreYear": 2011.0, "RecentScore": 1, "RecentYear": 2011.0 }, "geometry": { "type": "Point", "coordinates": [ -72.856272, 41.528244 ] } },
{ "type": "Feature", "properties": { "MonitoringLocationIdentifier": "14433", "MonitoringLocationName": "Roaring Brook", "MaxScore": 4, "MaxScoreYear": 2003.0, "RecentScore": 2, "RecentYear": 2004.0 }, "geometry": { "type": "Point", "coordinates": [ -72.6045, 41.665 ] } },
{ "type": "Feature", "properties": { "MonitoringLocationIdentifier": "14435", "MonitoringLocationName": "Salmon Brook", "MaxScore": 7, "MaxScoreYear": 2009.0, "RecentScore": 4, "RecentYear": 2023.0 }, "geometry": { "type": "Point", "coordinates": [ -72.7749, 41.9366 ] } },
{ "type": "Feature", "properties": { "MonitoringLocationIdentifier": "14440", "MonitoringLocationName": "Salmon River", "MaxScore": 8, "MaxScoreYear": 2013.0, "RecentScore": 5, "RecentYear": 2019.0 }, "geometry": { "type": "Point", "coordinates": [ -72.4496, 41.5526 ] } },
{ "type": "Feature", "properties": { "MonitoringLocationIdentifier": "14443", "MonitoringLocationName": "Saugatuck River", "MaxScore": 2, "MaxScoreYear": 2008.0, "RecentScore": 2, "RecentYear": 2008.0 }, "geometry": { "type": "Point", "coordinates": [ -73.3469, 41.2245 ] } },
{ "type": "Feature", "properties": { "MonitoringLocationIdentifier": "14444", "MonitoringLocationName": "Saugatuck River", "MaxScore": 1, "MaxScoreYear": 2010.0, "RecentScore": 0, "RecentYear": 2013.0 }, "geometry": { "type": "Point", "coordinates": [ -73.3948, 41.2945 ] } },
{ "type": "Feature", "properties": { "MonitoringLocationIdentifier": "14445", "MonitoringLocationName": "Saugatuck River", "MaxScore": 5, "MaxScoreYear": 2004.0, "RecentScore": 4, "RecentYear": 2024.0 }, "geometry": { "type": "Point", "coordinates": [ -73.367, 41.1693 ] } },
{ "type": "Feature", "properties": { "MonitoringLocationIdentifier": "14450", "MonitoringLocationName": "Shepaug River", "MaxScore": 6, "MaxScoreYear": 2009.0, "RecentScore": 3, "RecentYear": 2012.0 }, "geometry": { "type": "Point", "coordinates": [ -73.3308, 41.5489 ] } },
{ "type": "Feature", "properties": { "MonitoringLocationIdentifier": "14451", "MonitoringLocationName": "Shetucket River", "MaxScore": 5, "MaxScoreYear": 2005.0, "RecentScore": 5, "RecentYear": 2005.0 }, "geometry": { "type": "Point", "coordinates": [ -72.1823, 41.7002 ] } },
{ "type": "Feature", "properties": { "MonitoringLocationIdentifier": "14456", "MonitoringLocationName": "Steele Brook", "MaxScore": 0, "MaxScoreYear": 2000.0, "RecentScore": 0, "RecentYear": 2000.0 }, "geometry": { "type": "Point", "coordinates": [ -73.0703, 41.5805 ] } },
{ "type": "Feature", "properties": { "MonitoringLocationIdentifier": "14469", "MonitoringLocationName": "Tankerhoosen River", "MaxScore": 4, "MaxScoreYear": 2003.0, "RecentScore": 0, "RecentYear": 2016.0 }, "geometry": { "type": "Point", "coordinates": [ -72.5033, 41.8201 ] } },
{ "type": "Feature", "properties": { "MonitoringLocationIdentifier": "14470", "MonitoringLocationName": "Tankerhoosen River", "MaxScore": 5, "MaxScoreYear": 2002.0, "RecentScore": 3, "RecentYear": 2016.0 }, "geometry": { "type": "Point", "coordinates": [ -72.464, 41.8272 ] } },
{ "type": "Feature", "properties": { "MonitoringLocationIdentifier": "14472", "MonitoringLocationName": "Ten Mile River", "MaxScore": 2, "MaxScoreYear": 2007.0, "RecentScore": 2, "RecentYear": 2007.0 }, "geometry": { "type": "Point", "coordinates": [ -72.8905, 41.5655 ] } },
{ "type": "Feature", "properties": { "MonitoringLocationIdentifier": "14488", "MonitoringLocationName": "West Aspetuck River", "MaxScore": 2, "MaxScoreYear": 2012.0, "RecentScore": 2, "RecentYear": 2012.0 }, "geometry": { "type": "Point", "coordinates": [ -73.428789, 41.604889 ] } },
{ "type": "Feature", "properties": { "MonitoringLocationIdentifier": "14499", "MonitoringLocationName": "Wood River", "MaxScore": 0, "MaxScoreYear": 2010.0, "RecentScore": 0, "RecentYear": 2010.0 }, "geometry": { "type": "Point", "coordinates": [ -71.8181, 41.6442 ] } },
{ "type": "Feature", "properties": { "MonitoringLocationIdentifier": "14505", "MonitoringLocationName": "Falls River", "MaxScore": 1, "MaxScoreYear": 2010.0, "RecentScore": 1, "RecentYear": 2010.0 }, "geometry": { "type": "Point", "coordinates": [ -72.4808, 41.3372 ] } },
{ "type": "Feature", "properties": { "MonitoringLocationIdentifier": "14523", "MonitoringLocationName": "Burton Brook", "MaxScore": 1, "MaxScoreYear": 2015.0, "RecentScore": 1, "RecentYear": 2015.0 }, "geometry": { "type": "Point", "coordinates": [ -73.4341, 41.9667 ] } },
{ "type": "Feature", "properties": { "MonitoringLocationIdentifier": "14532", "MonitoringLocationName": "Morgan Brook", "MaxScore": 2, "MaxScoreYear": 2008.0, "RecentScore": 2, "RecentYear": 2008.0 }, "geometry": { "type": "Point", "coordinates": [ -72.9889, 41.9018 ] } },
{ "type": "Feature", "properties": { "MonitoringLocationIdentifier": "14582", "MonitoringLocationName": "Willimantic River", "MaxScore": 5, "MaxScoreYear": 2006.0, "RecentScore": 5, "RecentYear": 2006.0 }, "geometry": { "type": "Point", "coordinates": [ -72.2691, 41.7623 ] } },
{ "type": "Feature", "properties": { "MonitoringLocationIdentifier": "14584", "MonitoringLocationName": "Roaring Brook", "MaxScore": 2, "MaxScoreYear": 2005.0, "RecentScore": 2, "RecentYear": 2005.0 }, "geometry": { "type": "Point", "coordinates": [ -72.2891, 41.904 ] } },
{ "type": "Feature", "properties": { "MonitoringLocationIdentifier": "14587", "MonitoringLocationName": "Tenmile River", "MaxScore": 4, "MaxScoreYear": 2016.0, "RecentScore": 4, "RecentYear": 2016.0 }, "geometry": { "type": "Point", "coordinates": [ -72.2632, 41.6937 ] } },
{ "type": "Feature", "properties": { "MonitoringLocationIdentifier": "14588", "MonitoringLocationName": "Bungee Brook", "MaxScore": 4, "MaxScoreYear": 2004.0, "RecentScore": 4, "RecentYear": 2008.0 }, "geometry": { "type": "Point", "coordinates": [ -72.0714, 41.8957 ] } },
{ "type": "Feature", "properties": { "MonitoringLocationIdentifier": "14589", "MonitoringLocationName": "Still River", "MaxScore": 7, "MaxScoreYear": 1999.0, "RecentScore": 7, "RecentYear": 1999.0 }, "geometry": { "type": "Point", "coordinates": [ -72.0877, 41.8716 ] } },
{ "type": "Feature", "properties": { "MonitoringLocationIdentifier": "14595", "MonitoringLocationName": "Quanduck Brook", "MaxScore": 2, "MaxScoreYear": 2010.0, "RecentScore": 2, "RecentYear": 2010.0 }, "geometry": { "type": "Point", "coordinates": [ -71.836053, 41.721906 ] } },
{ "type": "Feature", "properties": { "MonitoringLocationIdentifier": "14602", "MonitoringLocationName": "Merrick Brook", "MaxScore": 3, "MaxScoreYear": 2005.0, "RecentScore": 3, "RecentYear": 2005.0 }, "geometry": { "type": "Point", "coordinates": [ -72.1101, 41.661 ] } },
{ "type": "Feature", "properties": { "MonitoringLocationIdentifier": "14608", "MonitoringLocationName": "Burlington Fish Hatchery", "MaxScore": 2, "MaxScoreYear": 2023.0, "RecentScore": 2, "RecentYear": 2023.0 }, "geometry": { "type": "Point", "coordinates": [ -72.9542, 41.7689 ] } },
{ "type": "Feature", "properties": { "MonitoringLocationIdentifier": "14628", "MonitoringLocationName": "Steele Brook", "MaxScore": 1, "MaxScoreYear": 2001.0, "RecentScore": 1, "RecentYear": 2001.0 }, "geometry": { "type": "Point", "coordinates": [ -73.0574, 41.5687 ] } },
{ "type": "Feature", "properties": { "MonitoringLocationIdentifier": "14669", "MonitoringLocationName": "French River", "MaxScore": 1, "MaxScoreYear": 2004.0, "RecentScore": 1, "RecentYear": 2004.0 }, "geometry": { "type": "Point", "coordinates": [ -71.9008, 41.9781 ] } },
{ "type": "Feature", "properties": { "MonitoringLocationIdentifier": "14673", "MonitoringLocationName": "Fivemile River", "MaxScore": 2, "MaxScoreYear": 2007.0, "RecentScore": 2, "RecentYear": 2007.0 }, "geometry": { "type": "Point", "coordinates": [ -71.8868, 41.8021 ] } },
{ "type": "Feature", "properties": { "MonitoringLocationIdentifier": "14695", "MonitoringLocationName": "Willow Brook", "MaxScore": 1, "MaxScoreYear": 2005.0, "RecentScore": 1, "RecentYear": 2005.0 }, "geometry": { "type": "Point", "coordinates": [ -72.7784, 41.6482 ] } },
{ "type": "Feature", "properties": { "MonitoringLocationIdentifier": "14710", "MonitoringLocationName": "Shepaug River", "MaxScore": 4, "MaxScoreYear": 2010.0, "RecentScore": 3, "RecentYear": 2013.0 }, "geometry": { "type": "Point", "coordinates": [ -73.298268, 41.683397 ] } },
{ "type": "Feature", "properties": { "MonitoringLocationIdentifier": "14711", "MonitoringLocationName": "Transylvania Brook", "MaxScore": 5, "MaxScoreYear": 2013.0, "RecentScore": 5, "RecentYear": 2013.0 }, "geometry": { "type": "Point", "coordinates": [ -73.258547, 41.484262 ] } },
{ "type": "Feature", "properties": { "MonitoringLocationIdentifier": "14712", "MonitoringLocationName": "Transylvania Brook", "MaxScore": 2, "MaxScoreYear": 2011.0, "RecentScore": 2, "RecentYear": 2020.0 }, "geometry": { "type": "Point", "coordinates": [ -73.2584, 41.484 ] } },
{ "type": "Feature", "properties": { "MonitoringLocationIdentifier": "14719", "MonitoringLocationName": "Wyassup Brook", "MaxScore": 3, "MaxScoreYear": 2007.0, "RecentScore": 3, "RecentYear": 2007.0 }, "geometry": { "type": "Point", "coordinates": [ -71.8172, 41.4566 ] } },
{ "type": "Feature", "properties": { "MonitoringLocationIdentifier": "14720", "MonitoringLocationName": "Green Fall River", "MaxScore": 7, "MaxScoreYear": 2007.0, "RecentScore": 7, "RecentYear": 2007.0 }, "geometry": { "type": "Point", "coordinates": [ -71.8169, 41.4568 ] } },
{ "type": "Feature", "properties": { "MonitoringLocationIdentifier": "14728", "MonitoringLocationName": "Patagansett River", "MaxScore": 0, "MaxScoreYear": 2009.0, "RecentScore": 0, "RecentYear": 2010.0 }, "geometry": { "type": "Point", "coordinates": [ -72.2054, 41.3262 ] } },
{ "type": "Feature", "properties": { "MonitoringLocationIdentifier": "14732", "MonitoringLocationName": "Poquetanuck Brook (Hewitt Brook)", "MaxScore": 2, "MaxScoreYear": 2013.0, "RecentScore": 2, "RecentYear": 2013.0 }, "geometry": { "type": "Point", "coordinates": [ -72.0365, 41.4981 ] } },
{ "type": "Feature", "properties": { "MonitoringLocationIdentifier": "14734", "MonitoringLocationName": "Yantic River", "MaxScore": 3, "MaxScoreYear": 2004.0, "RecentScore": 3, "RecentYear": 2004.0 }, "geometry": { "type": "Point", "coordinates": [ -72.1918, 41.5766 ] } },
{ "type": "Feature", "properties": { "MonitoringLocationIdentifier": "14735", "MonitoringLocationName": "Yantic River", "MaxScore": 4, "MaxScoreYear": 2014.0, "RecentScore": 2, "RecentYear": 2019.0 }, "geometry": { "type": "Point", "coordinates": [ -72.112, 41.5583 ] } },
{ "type": "Feature", "properties": { "MonitoringLocationIdentifier": "14741", "MonitoringLocationName": "Titicus River", "MaxScore": 4, "MaxScoreYear": 2010.0, "RecentScore": 3, "RecentYear": 2021.0 }, "geometry": { "type": "Point", "coordinates": [ -73.5218, 41.3287 ] } },
{ "type": "Feature", "properties": { "MonitoringLocationIdentifier": "14753", "MonitoringLocationName": "Willow Brook", "MaxScore": 2, "MaxScoreYear": 2005.0, "RecentScore": 2, "RecentYear": 2005.0 }, "geometry": { "type": "Point", "coordinates": [ -72.9231, 41.4766 ] } },
{ "type": "Feature", "properties": { "MonitoringLocationIdentifier": "14786", "MonitoringLocationName": "Fulling Mill Brook", "MaxScore": 4, "MaxScoreYear": 2003.0, "RecentScore": 4, "RecentYear": 2003.0 }, "geometry": { "type": "Point", "coordinates": [ -73.0475, 41.5023 ] } },
{ "type": "Feature", "properties": { "MonitoringLocationIdentifier": "14793", "MonitoringLocationName": "Hop Brook", "MaxScore": 2, "MaxScoreYear": 2000.0, "RecentScore": 1, "RecentYear": 2001.0 }, "geometry": { "type": "Point", "coordinates": [ -73.0552, 41.4996 ] } },
{ "type": "Feature", "properties": { "MonitoringLocationIdentifier": "14800", "MonitoringLocationName": "Steele Brook", "MaxScore": 4, "MaxScoreYear": 2001.0, "RecentScore": 4, "RecentYear": 2001.0 }, "geometry": { "type": "Point", "coordinates": [ -73.1153, 41.6105 ] } },
{ "type": "Feature", "properties": { "MonitoringLocationIdentifier": "14826", "MonitoringLocationName": "South Fork Hockanum River", "MaxScore": 1, "MaxScoreYear": 2000.0, "RecentScore": 1, "RecentYear": 2000.0 }, "geometry": { "type": "Point", "coordinates": [ -72.5635, 41.7774 ] } },
{ "type": "Feature", "properties": { "MonitoringLocationIdentifier": "14841", "MonitoringLocationName": "FARMINGTON RIVER", "MaxScore": 4, "MaxScoreYear": 2010.0, "RecentScore": 2, "RecentYear": 2013.0 }, "geometry": { "type": "Point", "coordinates": [ -72.9295, 41.8257 ] } },
{ "type": "Feature", "properties": { "MonitoringLocationIdentifier": "14842", "MonitoringLocationName": "Indian Meadow Brook", "MaxScore": 9, "MaxScoreYear": 2014.0, "RecentScore": 8, "RecentYear": 2023.0 }, "geometry": { "type": "Point", "coordinates": [ -73.079, 41.9305 ] } },
{ "type": "Feature", "properties": { "MonitoringLocationIdentifier": "14843", "MonitoringLocationName": "Sandy Brook", "MaxScore": 5, "MaxScoreYear": 2012.0, "RecentScore": 5, "RecentYear": 2013.0 }, "geometry": { "type": "Point", "coordinates": [ -73.058, 41.9904 ] } },
{ "type": "Feature", "properties": { "MonitoringLocationIdentifier": "14870", "MonitoringLocationName": "Nonewaug River", "MaxScore": 4, "MaxScoreYear": 2009.0, "RecentScore": 3, "RecentYear": 2013.0 }, "geometry": { "type": "Point", "coordinates": [ -73.1844, 41.5728 ] } },
{ "type": "Feature", "properties": { "MonitoringLocationIdentifier": "14885", "MonitoringLocationName": "Pequabuck River", "MaxScore": 3, "MaxScoreYear": 2007.0, "RecentScore": 3, "RecentYear": 2007.0 }, "geometry": { "type": "Point", "coordinates": [ -72.956, 41.6743 ] } },
{ "type": "Feature", "properties": { "MonitoringLocationIdentifier": "14939", "MonitoringLocationName": "Neck River", "MaxScore": 3, "MaxScoreYear": 2009.0, "RecentScore": 3, "RecentYear": 2009.0 }, "geometry": { "type": "Point", "coordinates": [ -72.6235, 41.2987 ] } },
{ "type": "Feature", "properties": { "MonitoringLocationIdentifier": "14999", "MonitoringLocationName": "North Running Brook", "MaxScore": 4, "MaxScoreYear": 2011.0, "RecentScore": 4, "RecentYear": 2011.0 }, "geometry": { "type": "Point", "coordinates": [ -71.9657, 41.9645 ] } },
{ "type": "Feature", "properties": { "MonitoringLocationIdentifier": "15007", "MonitoringLocationName": "Sawmill Brook", "MaxScore": 5, "MaxScoreYear": 2014.0, "RecentScore": 3, "RecentYear": 2015.0 }, "geometry": { "type": "Point", "coordinates": [ -72.2017, 41.7398 ] } },
{ "type": "Feature", "properties": { "MonitoringLocationIdentifier": "15017", "MonitoringLocationName": "Fivemile Brook", "MaxScore": 4, "MaxScoreYear": 2006.0, "RecentScore": 2, "RecentYear": 2006.0 }, "geometry": { "type": "Point", "coordinates": [ -73.1597, 41.3846 ] } },
{ "type": "Feature", "properties": { "MonitoringLocationIdentifier": "15025", "MonitoringLocationName": "Pomperaug River", "MaxScore": 5, "MaxScoreYear": 2013.0, "RecentScore": 5, "RecentYear": 2013.0 }, "geometry": { "type": "Point", "coordinates": [ -73.2252, 41.4812 ] } },
{ "type": "Feature", "properties": { "MonitoringLocationIdentifier": "15044", "MonitoringLocationName": "Kent Falls Brook", "MaxScore": 5, "MaxScoreYear": 2006.0, "RecentScore": 5, "RecentYear": 2006.0 }, "geometry": { "type": "Point", "coordinates": [ -73.4192, 41.7769 ] } },
{ "type": "Feature", "properties": { "MonitoringLocationIdentifier": "15045", "MonitoringLocationName": "Judd Brook", "MaxScore": 4, "MaxScoreYear": 2008.0, "RecentScore": 3, "RecentYear": 2024.0 }, "geometry": { "type": "Point", "coordinates": [ -72.373, 41.6005 ] } },
{ "type": "Feature", "properties": { "MonitoringLocationIdentifier": "15091", "MonitoringLocationName": "Fenton River", "MaxScore": 4, "MaxScoreYear": 2002.0, "RecentScore": 4, "RecentYear": 2003.0 }, "geometry": { "type": "Point", "coordinates": [ -72.2309, 41.8222 ] } },
{ "type": "Feature", "properties": { "MonitoringLocationIdentifier": "15092", "MonitoringLocationName": "Fenton River", "MaxScore": 4, "MaxScoreYear": 1999.0, "RecentScore": 3, "RecentYear": 2003.0 }, "geometry": { "type": "Point", "coordinates": [ -72.2429, 41.8335 ] } },
{ "type": "Feature", "properties": { "MonitoringLocationIdentifier": "15093", "MonitoringLocationName": "Fenton River", "MaxScore": 6, "MaxScoreYear": 2000.0, "RecentScore": 3, "RecentYear": 2011.0 }, "geometry": { "type": "Point", "coordinates": [ -72.2208, 41.8108 ] } },
{ "type": "Feature", "properties": { "MonitoringLocationIdentifier": "15105", "MonitoringLocationName": "Hop Brook", "MaxScore": 2, "MaxScoreYear": 2008.0, "RecentScore": 1, "RecentYear": 2009.0 }, "geometry": { "type": "Point", "coordinates": [ -72.8106, 41.8701 ] } },
{ "type": "Feature", "properties": { "MonitoringLocationIdentifier": "15107", "MonitoringLocationName": "Willimantic River", "MaxScore": 3, "MaxScoreYear": 2011.0, "RecentScore": 3, "RecentYear": 2011.0 }, "geometry": { "type": "Point", "coordinates": [ -72.3072, 41.8564 ] } },
{ "type": "Feature", "properties": { "MonitoringLocationIdentifier": "15108", "MonitoringLocationName": "Fenton River", "MaxScore": 5, "MaxScoreYear": 2011.0, "RecentScore": 5, "RecentYear": 2011.0 }, "geometry": { "type": "Point", "coordinates": [ -72.2253, 41.8164 ] } },
{ "type": "Feature", "properties": { "MonitoringLocationIdentifier": "15126", "MonitoringLocationName": "Wharton Brook", "MaxScore": 0, "MaxScoreYear": 2016.0, "RecentScore": 0, "RecentYear": 2016.0 }, "geometry": { "type": "Point", "coordinates": [ -72.8217, 41.4394 ] } },
{ "type": "Feature", "properties": { "MonitoringLocationIdentifier": "15127", "MonitoringLocationName": "Shepaug River", "MaxScore": 6, "MaxScoreYear": 2009.0, "RecentScore": 4, "RecentYear": 2013.0 }, "geometry": { "type": "Point", "coordinates": [ -73.3255, 41.622 ] } },
{ "type": "Feature", "properties": { "MonitoringLocationIdentifier": "15128", "MonitoringLocationName": "Kirby Brook", "MaxScore": 5, "MaxScoreYear": 2011.0, "RecentScore": 2, "RecentYear": 2016.0 }, "geometry": { "type": "Point", "coordinates": [ -73.3227, 41.6173 ] } },
{ "type": "Feature", "properties": { "MonitoringLocationIdentifier": "15138", "MonitoringLocationName": "Bantam River", "MaxScore": 5, "MaxScoreYear": 2013.0, "RecentScore": 2, "RecentYear": 2018.0 }, "geometry": { "type": "Point", "coordinates": [ -73.1868, 41.7305 ] } },
{ "type": "Feature", "properties": { "MonitoringLocationIdentifier": "15139", "MonitoringLocationName": "Trout Brook", "MaxScore": 0, "MaxScoreYear": 2008.0, "RecentScore": 0, "RecentYear": 2008.0 }, "geometry": { "type": "Point", "coordinates": [ -72.7375, 41.7586 ] } },
{ "type": "Feature", "properties": { "MonitoringLocationIdentifier": "15142", "MonitoringLocationName": "Bass Brook, tributary to", "MaxScore": 0, "MaxScoreYear": 1999.0, "RecentScore": 0, "RecentYear": 1999.0 }, "geometry": { "type": "Point", "coordinates": [ -72.7643, 41.6912 ] } },
{ "type": "Feature", "properties": { "MonitoringLocationIdentifier": "15151", "MonitoringLocationName": "Little River", "MaxScore": 4, "MaxScoreYear": 2014.0, "RecentScore": 4, "RecentYear": 2014.0 }, "geometry": { "type": "Point", "coordinates": [ -71.9163, 41.912 ] } },
{ "type": "Feature", "properties": { "MonitoringLocationIdentifier": "15152", "MonitoringLocationName": "Little River", "MaxScore": 4, "MaxScoreYear": 2009.0, "RecentScore": 3, "RecentYear": 2010.0 }, "geometry": { "type": "Point", "coordinates": [ -71.9228, 41.9208 ] } },
{ "type": "Feature", "properties": { "MonitoringLocationIdentifier": "15154", "MonitoringLocationName": "Freeman Brook", "MaxScore": 6, "MaxScoreYear": 2019.0, "RecentScore": 6, "RecentYear": 2019.0 }, "geometry": { "type": "Point", "coordinates": [ -72.9364, 41.7153 ] } },
{ "type": "Feature", "properties": { "MonitoringLocationIdentifier": "15155", "MonitoringLocationName": "Trout Brook", "MaxScore": 0, "MaxScoreYear": 2000.0, "RecentScore": 0, "RecentYear": 2001.0 }, "geometry": { "type": "Point", "coordinates": [ -72.7308, 41.7364 ] } },
{ "type": "Feature", "properties": { "MonitoringLocationIdentifier": "15156", "MonitoringLocationName": "Mount Hope River", "MaxScore": 6, "MaxScoreYear": 2000.0, "RecentScore": 6, "RecentYear": 2000.0 }, "geometry": { "type": "Point", "coordinates": [ -72.166185, 41.840312 ] } },
{ "type": "Feature", "properties": { "MonitoringLocationIdentifier": "15158", "MonitoringLocationName": "Trout Brook", "MaxScore": 0, "MaxScoreYear": 1999.0, "RecentScore": 0, "RecentYear": 2000.0 }, "geometry": { "type": "Point", "coordinates": [ -72.738, 41.76 ] } },
{ "type": "Feature", "properties": { "MonitoringLocationIdentifier": "15159", "MonitoringLocationName": "Morgan Brook, tributary to", "MaxScore": 4, "MaxScoreYear": 2000.0, "RecentScore": 4, "RecentYear": 2000.0 }, "geometry": { "type": "Point", "coordinates": [ -73.0032, 41.9007 ] } },
{ "type": "Feature", "properties": { "MonitoringLocationIdentifier": "15160", "MonitoringLocationName": "West Branch Farmington River", "MaxScore": 9, "MaxScoreYear": 2000.0, "RecentScore": 9, "RecentYear": 2000.0 }, "geometry": { "type": "Point", "coordinates": [ -72.9908, 41.9172 ] } },
{ "type": "Feature", "properties": { "MonitoringLocationIdentifier": "15161", "MonitoringLocationName": "Hockanum River", "MaxScore": 1, "MaxScoreYear": 2003.0, "RecentScore": 0, "RecentYear": 2005.0 }, "geometry": { "type": "Point", "coordinates": [ -72.5472, 41.7905 ] } },
{ "type": "Feature", "properties": { "MonitoringLocationIdentifier": "15162", "MonitoringLocationName": "Pomperaug River", "MaxScore": 4, "MaxScoreYear": 2009.0, "RecentScore": 4, "RecentYear": 2009.0 }, "geometry": { "type": "Point", "coordinates": [ -73.219, 41.501 ] } },
{ "type": "Feature", "properties": { "MonitoringLocationIdentifier": "15163", "MonitoringLocationName": "Day Brook", "MaxScore": 5, "MaxScoreYear": 2017.0, "RecentScore": 5, "RecentYear": 2017.0 }, "geometry": { "type": "Point", "coordinates": [ -71.9554, 41.8635 ] } },
{ "type": "Feature", "properties": { "MonitoringLocationIdentifier": "15164", "MonitoringLocationName": "Furnace Brook", "MaxScore": 6, "MaxScoreYear": 2017.0, "RecentScore": 6, "RecentYear": 2017.0 }, "geometry": { "type": "Point", "coordinates": [ -73.3553, 41.8274 ] } },
{ "type": "Feature", "properties": { "MonitoringLocationIdentifier": "15169", "MonitoringLocationName": "Roaring Brook", "MaxScore": 2, "MaxScoreYear": 2008.0, "RecentScore": 1, "RecentYear": 2010.0 }, "geometry": { "type": "Point", "coordinates": [ -72.8808, 41.7594 ] } },
{ "type": "Feature", "properties": { "MonitoringLocationIdentifier": "15170", "MonitoringLocationName": "West Branch Salmon Brook", "MaxScore": 6, "MaxScoreYear": 2019.0, "RecentScore": 6, "RecentYear": 2019.0 }, "geometry": { "type": "Point", "coordinates": [ -72.7957, 41.9438 ] } },
{ "type": "Feature", "properties": { "MonitoringLocationIdentifier": "15171", "MonitoringLocationName": "East Branch Salmon Brook", "MaxScore": 6, "MaxScoreYear": 2001.0, "RecentScore": 5, "RecentYear": 2007.0 }, "geometry": { "type": "Point", "coordinates": [ -72.7794, 41.955 ] } },
{ "type": "Feature", "properties": { "MonitoringLocationIdentifier": "15172", "MonitoringLocationName": "Belden Brook", "MaxScore": 9, "MaxScoreYear": 2002.0, "RecentScore": 9, "RecentYear": 2002.0 }, "geometry": { "type": "Point", "coordinates": [ -72.8352, 42.0013 ] } },
{ "type": "Feature", "properties": { "MonitoringLocationIdentifier": "15173", "MonitoringLocationName": "Dismal Brook", "MaxScore": 5, "MaxScoreYear": 2002.0, "RecentScore": 5, "RecentYear": 2002.0 }, "geometry": { "type": "Point", "coordinates": [ -72.8221, 41.9895 ] } },
{ "type": "Feature", "properties": { "MonitoringLocationIdentifier": "15174", "MonitoringLocationName": "Green Fall River", "MaxScore": 5, "MaxScoreYear": 2001.0, "RecentScore": 5, "RecentYear": 2001.0 }, "geometry": { "type": "Point", "coordinates": [ -71.8162, 41.4724 ] } },
{ "type": "Feature", "properties": { "MonitoringLocationIdentifier": "15175", "MonitoringLocationName": "Green Fall River", "MaxScore": 4, "MaxScoreYear": 2001.0, "RecentScore": 4, "RecentYear": 2001.0 }, "geometry": { "type": "Point", "coordinates": [ -71.8166, 41.456 ] } },
{ "type": "Feature", "properties": { "MonitoringLocationIdentifier": "15179", "MonitoringLocationName": "Eightmile River", "MaxScore": 5, "MaxScoreYear": 2001.0, "RecentScore": 3, "RecentYear": 2021.0 }, "geometry": { "type": "Point", "coordinates": [ -72.3372, 41.4671 ] } },
{ "type": "Feature", "properties": { "MonitoringLocationIdentifier": "15180", "MonitoringLocationName": "East Branch Eightmile River", "MaxScore": 7, "MaxScoreYear": 2019.0, "RecentScore": 7, "RecentYear": 2019.0 }, "geometry": { "type": "Point", "coordinates": [ -72.2819, 41.4795 ] } },
{ "type": "Feature", "properties": { "MonitoringLocationIdentifier": "15184", "MonitoringLocationName": "Roaring Brook", "MaxScore": 5, "MaxScoreYear": 2001.0, "RecentScore": 2, "RecentYear": 2002.0 }, "geometry": { "type": "Point", "coordinates": [ -72.5977, 41.6643 ] } },
{ "type": "Feature", "properties": { "MonitoringLocationIdentifier": "15185", "MonitoringLocationName": "Natchaug River", "MaxScore": 4, "MaxScoreYear": 2001.0, "RecentScore": 4, "RecentYear": 2001.0 }, "geometry": { "type": "Point", "coordinates": [ -72.1846, 41.7557 ] } },
{ "type": "Feature", "properties": { "MonitoringLocationIdentifier": "15187", "MonitoringLocationName": "Dayton Brook", "MaxScore": 1, "MaxScoreYear": 2000.0, "RecentScore": 1, "RecentYear": 2000.0 }, "geometry": { "type": "Point", "coordinates": [ -72.9045, 41.6053 ] } },
{ "type": "Feature", "properties": { "MonitoringLocationIdentifier": "15190", "MonitoringLocationName": "Judd Brook", "MaxScore": 2, "MaxScoreYear": 2000.0, "RecentScore": 2, "RecentYear": 2000.0 }, "geometry": { "type": "Point", "coordinates": [ -72.9135, 41.568 ] } },
{ "type": "Feature", "properties": { "MonitoringLocationIdentifier": "15192", "MonitoringLocationName": "Honeypot Brook", "MaxScore": 2, "MaxScoreYear": 2001.0, "RecentScore": 0, "RecentYear": 2012.0 }, "geometry": { "type": "Point", "coordinates": [ -72.890365, 41.528627 ] } },
{ "type": "Feature", "properties": { "MonitoringLocationIdentifier": "15193", "MonitoringLocationName": "Honeypot Brook", "MaxScore": 2, "MaxScoreYear": 2000.0, "RecentScore": 0, "RecentYear": 2014.0 }, "geometry": { "type": "Point", "coordinates": [ -72.8789, 41.5396 ] } },
{ "type": "Feature", "properties": { "MonitoringLocationIdentifier": "15194", "MonitoringLocationName": "Ten mile River", "MaxScore": 3, "MaxScoreYear": 2000.0, "RecentScore": 3, "RecentYear": 2000.0 }, "geometry": { "type": "Point", "coordinates": [ -72.9177, 41.5441 ] } },
{ "type": "Feature", "properties": { "MonitoringLocationIdentifier": "15195", "MonitoringLocationName": "Crow Hollow Brook", "MaxScore": 2, "MaxScoreYear": 2001.0, "RecentScore": 2, "RecentYear": 2001.0 }, "geometry": { "type": "Point", "coordinates": [ -72.8325, 41.5457 ] } },
{ "type": "Feature", "properties": { "MonitoringLocationIdentifier": "15196", "MonitoringLocationName": "Quinnipiac River", "MaxScore": 0, "MaxScoreYear": 2001.0, "RecentScore": 0, "RecentYear": 2002.0 }, "geometry": { "type": "Point", "coordinates": [ -72.8184, 41.4997 ] } },
{ "type": "Feature", "properties": { "MonitoringLocationIdentifier": "15197", "MonitoringLocationName": "Harbor Brook", "MaxScore": 1, "MaxScoreYear": 2001.0, "RecentScore": 0, "RecentYear": 2013.0 }, "geometry": { "type": "Point", "coordinates": [ -72.7854, 41.5456 ] } },
{ "type": "Feature", "properties": { "MonitoringLocationIdentifier": "15198", "MonitoringLocationName": "Wharton Brook", "MaxScore": 1, "MaxScoreYear": 2001.0, "RecentScore": 0, "RecentYear": 2012.0 }, "geometry": { "type": "Point", "coordinates": [ -72.8145, 41.4491 ] } },
{ "type": "Feature", "properties": { "MonitoringLocationIdentifier": "15199", "MonitoringLocationName": "Harbor Brook", "MaxScore": 0, "MaxScoreYear": 2002.0, "RecentScore": 0, "RecentYear": 2012.0 }, "geometry": { "type": "Point", "coordinates": [ -72.775, 41.5486 ] } },
{ "type": "Feature", "properties": { "MonitoringLocationIdentifier": "15200", "MonitoringLocationName": "Spruce Glen Brook", "MaxScore": 2, "MaxScoreYear": 2002.0, "RecentScore": 2, "RecentYear": 2002.0 }, "geometry": { "type": "Point", "coordinates": [ -72.8007, 41.4978 ] } },
{ "type": "Feature", "properties": { "MonitoringLocationIdentifier": "15201", "MonitoringLocationName": "Spoonshop Brook", "MaxScore": 2, "MaxScoreYear": 2012.0, "RecentScore": 0, "RecentYear": 2013.0 }, "geometry": { "type": "Point", "coordinates": [ -72.765549, 41.545673 ] } },
{ "type": "Feature", "properties": { "MonitoringLocationIdentifier": "15202", "MonitoringLocationName": "North Brook", "MaxScore": 0, "MaxScoreYear": 2002.0, "RecentScore": 0, "RecentYear": 2002.0 }, "geometry": { "type": "Point", "coordinates": [ -72.7534, 41.5408 ] } },
{ "type": "Feature", "properties": { "MonitoringLocationIdentifier": "15204", "MonitoringLocationName": "Harbor Brook, tributary to", "MaxScore": 0, "MaxScoreYear": 2002.0, "RecentScore": 0, "RecentYear": 2002.0 }, "geometry": { "type": "Point", "coordinates": [ -72.7848, 41.5549 ] } },
{ "type": "Feature", "properties": { "MonitoringLocationIdentifier": "15205", "MonitoringLocationName": "Tankerhoosen River", "MaxScore": 6, "MaxScoreYear": 2002.0, "RecentScore": 3, "RecentYear": 2024.0 }, "geometry": { "type": "Point", "coordinates": [ -72.4482, 41.8294 ] } },
{ "type": "Feature", "properties": { "MonitoringLocationIdentifier": "15206", "MonitoringLocationName": "Tankerhoosen River", "MaxScore": 2, "MaxScoreYear": 2002.0, "RecentScore": 2, "RecentYear": 2016.0 }, "geometry": { "type": "Point", "coordinates": [ -72.4934, 41.8232 ] } },
{ "type": "Feature", "properties": { "MonitoringLocationIdentifier": "15207", "MonitoringLocationName": "Hop River", "MaxScore": 4, "MaxScoreYear": 2008.0, "RecentScore": 4, "RecentYear": 2008.0 }, "geometry": { "type": "Point", "coordinates": [ -72.406, 41.7685 ] } },
{ "type": "Feature", "properties": { "MonitoringLocationIdentifier": "15208", "MonitoringLocationName": "Natchaug River", "MaxScore": 2, "MaxScoreYear": 2002.0, "RecentScore": 2, "RecentYear": 2002.0 }, "geometry": { "type": "Point", "coordinates": [ -72.1945, 41.7168 ] } },
{ "type": "Feature", "properties": { "MonitoringLocationIdentifier": "15209", "MonitoringLocationName": "Potash Brook", "MaxScore": 3, "MaxScoreYear": 2002.0, "RecentScore": 3, "RecentYear": 2002.0 }, "geometry": { "type": "Point", "coordinates": [ -72.1807, 41.7009 ] } },
{ "type": "Feature", "properties": { "MonitoringLocationIdentifier": "15210", "MonitoringLocationName": "Beaver Brook", "MaxScore": 4, "MaxScoreYear": 2002.0, "RecentScore": 4, "RecentYear": 2012.0 }, "geometry": { "type": "Point", "coordinates": [ -72.1092, 41.6841 ] } },
{ "type": "Feature", "properties": { "MonitoringLocationIdentifier": "15211", "MonitoringLocationName": "Merrick Brook", "MaxScore": 3, "MaxScoreYear": 2002.0, "RecentScore": 3, "RecentYear": 2018.0 }, "geometry": { "type": "Point", "coordinates": [ -72.1048, 41.68 ] } },
{ "type": "Feature", "properties": { "MonitoringLocationIdentifier": "15221", "MonitoringLocationName": "Scantic River", "MaxScore": 3, "MaxScoreYear": 2003.0, "RecentScore": 1, "RecentYear": 2008.0 }, "geometry": { "type": "Point", "coordinates": [ -72.5407, 41.982 ] } },
{ "type": "Feature", "properties": { "MonitoringLocationIdentifier": "15223", "MonitoringLocationName": "Leadmine Brook", "MaxScore": 3, "MaxScoreYear": 2000.0, "RecentScore": 3, "RecentYear": 2000.0 }, "geometry": { "type": "Point", "coordinates": [ -73.0577, 41.7019 ] } },
{ "type": "Feature", "properties": { "MonitoringLocationIdentifier": "15224", "MonitoringLocationName": "Long Meadow Pond Brook", "MaxScore": 3, "MaxScoreYear": 2000.0, "RecentScore": 0, "RecentYear": 2001.0 }, "geometry": { "type": "Point", "coordinates": [ -73.0579, 41.4861 ] } },
{ "type": "Feature", "properties": { "MonitoringLocationIdentifier": "15225", "MonitoringLocationName": "Fulling Mill Brook", "MaxScore": 5, "MaxScoreYear": 2000.0, "RecentScore": 5, "RecentYear": 2000.0 }, "geometry": { "type": "Point", "coordinates": [ -73.0387, 41.5022 ] } },
{ "type": "Feature", "properties": { "MonitoringLocationIdentifier": "15226", "MonitoringLocationName": "Bladens River (Bladdens River)", "MaxScore": 4, "MaxScoreYear": 2000.0, "RecentScore": 4, "RecentYear": 2000.0 }, "geometry": { "type": "Point", "coordinates": [ -73.0555, 41.3983 ] } },
{ "type": "Feature", "properties": { "MonitoringLocationIdentifier": "15228", "MonitoringLocationName": "Kinneytown Brook", "MaxScore": 4, "MaxScoreYear": 2000.0, "RecentScore": 4, "RecentYear": 2000.0 }, "geometry": { "type": "Point", "coordinates": [ -73.093, 41.3624 ] } },
{ "type": "Feature", "properties": { "MonitoringLocationIdentifier": "15229", "MonitoringLocationName": "Bladens River (Bladdens River)", "MaxScore": 2, "MaxScoreYear": 2001.0, "RecentScore": 2, "RecentYear": 2001.0 }, "geometry": { "type": "Point", "coordinates": [ -73.0514, 41.3993 ] } },
{ "type": "Feature", "properties": { "MonitoringLocationIdentifier": "15239", "MonitoringLocationName": "East Branch Byram River", "MaxScore": 4, "MaxScoreYear": 2014.0, "RecentScore": 3, "RecentYear": 2024.0 }, "geometry": { "type": "Point", "coordinates": [ -73.6832, 41.0995 ] } },
{ "type": "Feature", "properties": { "MonitoringLocationIdentifier": "15241", "MonitoringLocationName": "Roaring Brook", "MaxScore": 2, "MaxScoreYear": 2010.0, "RecentScore": 2, "RecentYear": 2010.0 }, "geometry": { "type": "Point", "coordinates": [ -72.6017, 41.665 ] } },
{ "type": "Feature", "properties": { "MonitoringLocationIdentifier": "15245", "MonitoringLocationName": "Cobble Brook", "MaxScore": 3, "MaxScoreYear": 2013.0, "RecentScore": 3, "RecentYear": 2013.0 }, "geometry": { "type": "Point", "coordinates": [ -73.4531, 41.7342 ] } },
{ "type": "Feature", "properties": { "MonitoringLocationIdentifier": "15246", "MonitoringLocationName": "Furnace Brook", "MaxScore": 6, "MaxScoreYear": 2008.0, "RecentScore": 6, "RecentYear": 2008.0 }, "geometry": { "type": "Point", "coordinates": [ -73.3661, 41.8183 ] } },
{ "type": "Feature", "properties": { "MonitoringLocationIdentifier": "15248", "MonitoringLocationName": "Mashamoquet Brook", "MaxScore": 5, "MaxScoreYear": 2009.0, "RecentScore": 3, "RecentYear": 2012.0 }, "geometry": { "type": "Point", "coordinates": [ -71.9812, 41.8579 ] } },
{ "type": "Feature", "properties": { "MonitoringLocationIdentifier": "15249", "MonitoringLocationName": "Mashamoquet Brook", "MaxScore": 6, "MaxScoreYear": 2024.0, "RecentScore": 4, "RecentYear": 2024.0 }, "geometry": { "type": "Point", "coordinates": [ -71.9828, 41.8592 ] } },
{ "type": "Feature", "properties": { "MonitoringLocationIdentifier": "15252", "MonitoringLocationName": "Joe Clark Brook", "MaxScore": 1, "MaxScoreYear": 2012.0, "RecentScore": 1, "RecentYear": 2012.0 }, "geometry": { "type": "Point", "coordinates": [ -72.0275, 41.4719 ] } },
{ "type": "Feature", "properties": { "MonitoringLocationIdentifier": "15254", "MonitoringLocationName": "West Branch Bantam River", "MaxScore": 1, "MaxScoreYear": 2012.0, "RecentScore": 1, "RecentYear": 2012.0 }, "geometry": { "type": "Point", "coordinates": [ -73.2342, 41.8124 ] } },
{ "type": "Feature", "properties": { "MonitoringLocationIdentifier": "15256", "MonitoringLocationName": "Bantam River", "MaxScore": 3, "MaxScoreYear": 2012.0, "RecentScore": 3, "RecentYear": 2012.0 }, "geometry": { "type": "Point", "coordinates": [ -73.2441, 41.7235 ] } },
{ "type": "Feature", "properties": { "MonitoringLocationIdentifier": "15258", "MonitoringLocationName": "Railroad Brook", "MaxScore": 1, "MaxScoreYear": 2006.0, "RecentScore": 0, "RecentYear": 2009.0 }, "geometry": { "type": "Point", "coordinates": [ -72.4454, 41.8242 ] } },
{ "type": "Feature", "properties": { "MonitoringLocationIdentifier": "15259", "MonitoringLocationName": "Whitford Brook", "MaxScore": 1, "MaxScoreYear": 2000.0, "RecentScore": 1, "RecentYear": 2000.0 }, "geometry": { "type": "Point", "coordinates": [ -71.9603, 41.395 ] } },
{ "type": "Feature", "properties": { "MonitoringLocationIdentifier": "15260", "MonitoringLocationName": "Pequabuck River", "MaxScore": 1, "MaxScoreYear": 2000.0, "RecentScore": 1, "RecentYear": 2000.0 }, "geometry": { "type": "Point", "coordinates": [ -72.8676, 41.6731 ] } },
{ "type": "Feature", "properties": { "MonitoringLocationIdentifier": "15278", "MonitoringLocationName": "East Aspetuck River", "MaxScore": 2, "MaxScoreYear": 2019.0, "RecentScore": 2, "RecentYear": 2019.0 }, "geometry": { "type": "Point", "coordinates": [ -73.4, 41.623 ] } },
{ "type": "Feature", "properties": { "MonitoringLocationIdentifier": "15280", "MonitoringLocationName": "Pootatuck River", "MaxScore": 6, "MaxScoreYear": 2008.0, "RecentScore": 5, "RecentYear": 2024.0 }, "geometry": { "type": "Point", "coordinates": [ -73.2827, 41.4149 ] } },
{ "type": "Feature", "properties": { "MonitoringLocationIdentifier": "15299", "MonitoringLocationName": "North Running Brook", "MaxScore": 3, "MaxScoreYear": 2011.0, "RecentScore": 3, "RecentYear": 2011.0 }, "geometry": { "type": "Point", "coordinates": [ -71.9666, 41.9645 ] } },
{ "type": "Feature", "properties": { "MonitoringLocationIdentifier": "15312", "MonitoringLocationName": "Beaver Brook", "MaxScore": 6, "MaxScoreYear": 2019.0, "RecentScore": 4, "RecentYear": 2024.0 }, "geometry": { "type": "Point", "coordinates": [ -72.329059, 41.409952 ] } },
{ "type": "Feature", "properties": { "MonitoringLocationIdentifier": "15313", "MonitoringLocationName": "Harris Brook", "MaxScore": 7, "MaxScoreYear": 2019.0, "RecentScore": 3, "RecentYear": 2024.0 }, "geometry": { "type": "Point", "coordinates": [ -72.2851, 41.4733 ] } },
{ "type": "Feature", "properties": { "MonitoringLocationIdentifier": "15314", "MonitoringLocationName": "Eightmile River, Unnamed tributary to (\"PV Brook\")", "MaxScore": 8, "MaxScoreYear": 2021.0, "RecentScore": 4, "RecentYear": 2024.0 }, "geometry": { "type": "Point", "coordinates": [ -72.3396, 41.4155 ] } },
{ "type": "Feature", "properties": { "MonitoringLocationIdentifier": "15315", "MonitoringLocationName": "Burnham Brook", "MaxScore": 6, "MaxScoreYear": 2016.0, "RecentScore": 6, "RecentYear": 2019.0 }, "geometry": { "type": "Point", "coordinates": [ -72.3343, 41.4603 ] } },
{ "type": "Feature", "properties": { "MonitoringLocationIdentifier": "15316", "MonitoringLocationName": "Gages Brook", "MaxScore": 6, "MaxScoreYear": 2003.0, "RecentScore": 1, "RecentYear": 2013.0 }, "geometry": { "type": "Point", "coordinates": [ -72.4248, 41.8571 ] } },
{ "type": "Feature", "properties": { "MonitoringLocationIdentifier": "15317", "MonitoringLocationName": "Bladens River (Bladdens River)", "MaxScore": 4, "MaxScoreYear": 2003.0, "RecentScore": 4, "RecentYear": 2003.0 }, "geometry": { "type": "Point", "coordinates": [ -73.0531, 41.3988 ] } },
{ "type": "Feature", "properties": { "MonitoringLocationIdentifier": "15319", "MonitoringLocationName": "Nod Brook", "MaxScore": 5, "MaxScoreYear": 2003.0, "RecentScore": 1, "RecentYear": 2014.0 }, "geometry": { "type": "Point", "coordinates": [ -72.8294, 41.8158 ] } },
{ "type": "Feature", "properties": { "MonitoringLocationIdentifier": "15320", "MonitoringLocationName": "Nod Brook", "MaxScore": 3, "MaxScoreYear": 2003.0, "RecentScore": 3, "RecentYear": 2003.0 }, "geometry": { "type": "Point", "coordinates": [ -72.8245, 41.8197 ] } },
{ "type": "Feature", "properties": { "MonitoringLocationIdentifier": "15321", "MonitoringLocationName": "Hemingway Creek", "MaxScore": 0, "MaxScoreYear": 2003.0, "RecentScore": 0, "RecentYear": 2003.0 }, "geometry": { "type": "Point", "coordinates": [ -72.8764, 41.3162 ] } },
{ "type": "Feature", "properties": { "MonitoringLocationIdentifier": "15322", "MonitoringLocationName": "Mount Hope River", "MaxScore": 3, "MaxScoreYear": 2003.0, "RecentScore": 3, "RecentYear": 2003.0 }, "geometry": { "type": "Point", "coordinates": [ -72.1721, 41.8231 ] } },
{ "type": "Feature", "properties": { "MonitoringLocationIdentifier": "15323", "MonitoringLocationName": "Blackledge River", "MaxScore": 2, "MaxScoreYear": 2003.0, "RecentScore": 2, "RecentYear": 2003.0 }, "geometry": { "type": "Point", "coordinates": [ -72.4538, 41.7687 ] } },
{ "type": "Feature", "properties": { "MonitoringLocationIdentifier": "15324", "MonitoringLocationName": "Blackledge River", "MaxScore": 2, "MaxScoreYear": 2013.0, "RecentScore": 2, "RecentYear": 2013.0 }, "geometry": { "type": "Point", "coordinates": [ -72.4454, 41.7518 ] } },
{ "type": "Feature", "properties": { "MonitoringLocationIdentifier": "15325", "MonitoringLocationName": "Terry Brook", "MaxScore": 3, "MaxScoreYear": 2004.0, "RecentScore": 3, "RecentYear": 2004.0 }, "geometry": { "type": "Point", "coordinates": [ -72.5119, 41.9889 ] } },
{ "type": "Feature", "properties": { "MonitoringLocationIdentifier": "15363", "MonitoringLocationName": "West Branch Saugatuck River", "MaxScore": 2, "MaxScoreYear": 2007.0, "RecentScore": 1, "RecentYear": 2009.0 }, "geometry": { "type": "Point", "coordinates": [ -73.3742, 41.178 ] } },
{ "type": "Feature", "properties": { "MonitoringLocationIdentifier": "15364", "MonitoringLocationName": "West Branch Saugatuck River", "MaxScore": 3, "MaxScoreYear": 2004.0, "RecentScore": 2, "RecentYear": 2013.0 }, "geometry": { "type": "Point", "coordinates": [ -73.3643, 41.1718 ] } },
{ "type": "Feature", "properties": { "MonitoringLocationIdentifier": "15365", "MonitoringLocationName": "West Branch Saugatuck River", "MaxScore": 1, "MaxScoreYear": 2013.0, "RecentScore": 1, "RecentYear": 2013.0 }, "geometry": { "type": "Point", "coordinates": [ -73.3889, 41.2088 ] } },
{ "type": "Feature", "properties": { "MonitoringLocationIdentifier": "15370", "MonitoringLocationName": "Saugatuck River", "MaxScore": 5, "MaxScoreYear": 2004.0, "RecentScore": 2, "RecentYear": 2024.0 }, "geometry": { "type": "Point", "coordinates": [ -73.3617, 41.1927 ] } },
{ "type": "Feature", "properties": { "MonitoringLocationIdentifier": "15372", "MonitoringLocationName": "Saugatuck River", "MaxScore": 2, "MaxScoreYear": 2009.0, "RecentScore": 1, "RecentYear": 2011.0 }, "geometry": { "type": "Point", "coordinates": [ -73.3499, 41.2199 ] } },
{ "type": "Feature", "properties": { "MonitoringLocationIdentifier": "15375", "MonitoringLocationName": "Aspetuck River", "MaxScore": 4, "MaxScoreYear": 2004.0, "RecentScore": 3, "RecentYear": 2024.0 }, "geometry": { "type": "Point", "coordinates": [ -73.3579, 41.1769 ] } },
{ "type": "Feature", "properties": { "MonitoringLocationIdentifier": "15380", "MonitoringLocationName": "Aspetuck River", "MaxScore": 2, "MaxScoreYear": 2008.0, "RecentScore": 2, "RecentYear": 2013.0 }, "geometry": { "type": "Point", "coordinates": [ -73.3241, 41.2287 ] } },
{ "type": "Feature", "properties": { "MonitoringLocationIdentifier": "15383", "MonitoringLocationName": "Jordan Brook", "MaxScore": 3, "MaxScoreYear": 2019.0, "RecentScore": 3, "RecentYear": 2019.0 }, "geometry": { "type": "Point", "coordinates": [ -72.1558, 41.38 ] } },
{ "type": "Feature", "properties": { "MonitoringLocationIdentifier": "15388", "MonitoringLocationName": "Pomperaug River", "MaxScore": 6, "MaxScoreYear": 2013.0, "RecentScore": 6, "RecentYear": 2013.0 }, "geometry": { "type": "Point", "coordinates": [ -73.258, 41.4672 ] } },
{ "type": "Feature", "properties": { "MonitoringLocationIdentifier": "15392", "MonitoringLocationName": "Day Brook", "MaxScore": 1, "MaxScoreYear": 2003.0, "RecentScore": 1, "RecentYear": 2003.0 }, "geometry": { "type": "Point", "coordinates": [ -71.9492, 41.8742 ] } },
{ "type": "Feature", "properties": { "MonitoringLocationIdentifier": "15393", "MonitoringLocationName": "Cemetery Brook", "MaxScore": 7, "MaxScoreYear": 2018.0, "RecentScore": 7, "RecentYear": 2018.0 }, "geometry": { "type": "Point", "coordinates": [ -72.0283, 41.8818 ] } },
{ "type": "Feature", "properties": { "MonitoringLocationIdentifier": "15394", "MonitoringLocationName": "Natchaug River", "MaxScore": 4, "MaxScoreYear": 2012.0, "RecentScore": 2, "RecentYear": 2013.0 }, "geometry": { "type": "Point", "coordinates": [ -72.0976, 41.8458 ] } },
{ "type": "Feature", "properties": { "MonitoringLocationIdentifier": "15417", "MonitoringLocationName": "Knowlton Brook", "MaxScore": 5, "MaxScoreYear": 2003.0, "RecentScore": 4, "RecentYear": 2004.0 }, "geometry": { "type": "Point", "coordinates": [ -72.1973, 41.8601 ] } },
{ "type": "Feature", "properties": { "MonitoringLocationIdentifier": "15418", "MonitoringLocationName": "Plum Gully Brook", "MaxScore": 1, "MaxScoreYear": 2003.0, "RecentScore": 1, "RecentYear": 2003.0 }, "geometry": { "type": "Point", "coordinates": [ -72.5712, 41.8154 ] } },
{ "type": "Feature", "properties": { "MonitoringLocationIdentifier": "15499", "MonitoringLocationName": "West Branch Salmon Brook", "MaxScore": 6, "MaxScoreYear": 2022.0, "RecentScore": 6, "RecentYear": 2022.0 }, "geometry": { "type": "Point", "coordinates": [ -72.834302, 41.94096 ] } },
{ "type": "Feature", "properties": { "MonitoringLocationIdentifier": "15501", "MonitoringLocationName": "Cedar Pond Brook", "MaxScore": 6, "MaxScoreYear": 2013.0, "RecentScore": 2, "RecentYear": 2023.0 }, "geometry": { "type": "Point", "coordinates": [ -72.3128, 41.4119 ] } },
{ "type": "Feature", "properties": { "MonitoringLocationIdentifier": "15509", "MonitoringLocationName": "Gunn Brook", "MaxScore": 6, "MaxScoreYear": 2008.0, "RecentScore": 6, "RecentYear": 2008.0 }, "geometry": { "type": "Point", "coordinates": [ -73.3903, 41.806 ] } },
{ "type": "Feature", "properties": { "MonitoringLocationIdentifier": "15513", "MonitoringLocationName": "Yantic River", "MaxScore": 3, "MaxScoreYear": 2004.0, "RecentScore": 3, "RecentYear": 2004.0 }, "geometry": { "type": "Point", "coordinates": [ -72.1759, 41.5702 ] } },
{ "type": "Feature", "properties": { "MonitoringLocationIdentifier": "15519", "MonitoringLocationName": "Bee Brook", "MaxScore": 8, "MaxScoreYear": 2014.0, "RecentScore": 3, "RecentYear": 2015.0 }, "geometry": { "type": "Point", "coordinates": [ -73.3181, 41.6571 ] } },
{ "type": "Feature", "properties": { "MonitoringLocationIdentifier": "15525", "MonitoringLocationName": "Macedonia Brook", "MaxScore": 5, "MaxScoreYear": 2014.0, "RecentScore": 5, "RecentYear": 2014.0 }, "geometry": { "type": "Point", "coordinates": [ -73.495, 41.767 ] } },
{ "type": "Feature", "properties": { "MonitoringLocationIdentifier": "15530", "MonitoringLocationName": "Weekeepeemee River", "MaxScore": 5, "MaxScoreYear": 2009.0, "RecentScore": 4, "RecentYear": 2013.0 }, "geometry": { "type": "Point", "coordinates": [ -73.2155, 41.5575 ] } },
{ "type": "Feature", "properties": { "MonitoringLocationIdentifier": "15551", "MonitoringLocationName": "Roaring Brook", "MaxScore": 2, "MaxScoreYear": 2004.0, "RecentScore": 2, "RecentYear": 2004.0 }, "geometry": { "type": "Point", "coordinates": [ -72.2613, 41.9353 ] } },
{ "type": "Feature", "properties": { "MonitoringLocationIdentifier": "15553", "MonitoringLocationName": "Hammonasset River", "MaxScore": 4, "MaxScoreYear": 2007.0, "RecentScore": 4, "RecentYear": 2007.0 }, "geometry": { "type": "Point", "coordinates": [ -72.5927, 41.3236 ] } },
{ "type": "Feature", "properties": { "MonitoringLocationIdentifier": "15554", "MonitoringLocationName": "Morgan Brook", "MaxScore": 4, "MaxScoreYear": 2004.0, "RecentScore": 2, "RecentYear": 2005.0 }, "geometry": { "type": "Point", "coordinates": [ -73.0175, 41.9125 ] } },
{ "type": "Feature", "properties": { "MonitoringLocationIdentifier": "15555", "MonitoringLocationName": "Morgan Brook", "MaxScore": 5, "MaxScoreYear": 2005.0, "RecentScore": 3, "RecentYear": 2010.0 }, "geometry": { "type": "Point", "coordinates": [ -72.9933, 41.9023 ] } },
{ "type": "Feature", "properties": { "MonitoringLocationIdentifier": "15558", "MonitoringLocationName": "Roaring Brook", "MaxScore": 2, "MaxScoreYear": 2004.0, "RecentScore": 2, "RecentYear": 2004.0 }, "geometry": { "type": "Point", "coordinates": [ -72.2656, 41.9152 ] } },
{ "type": "Feature", "properties": { "MonitoringLocationIdentifier": "15564", "MonitoringLocationName": "Willimantic River", "MaxScore": 4, "MaxScoreYear": 2004.0, "RecentScore": 4, "RecentYear": 2004.0 }, "geometry": { "type": "Point", "coordinates": [ -72.3067, 41.9292 ] } },
{ "type": "Feature", "properties": { "MonitoringLocationIdentifier": "15565", "MonitoringLocationName": "Willimantic River", "MaxScore": 3, "MaxScoreYear": 2004.0, "RecentScore": 3, "RecentYear": 2004.0 }, "geometry": { "type": "Point", "coordinates": [ -72.2914, 41.9031 ] } },
{ "type": "Feature", "properties": { "MonitoringLocationIdentifier": "15566", "MonitoringLocationName": "Willimantic River", "MaxScore": 4, "MaxScoreYear": 2006.0, "RecentScore": 4, "RecentYear": 2006.0 }, "geometry": { "type": "Point", "coordinates": [ -72.2975, 41.8944 ] } },
{ "type": "Feature", "properties": { "MonitoringLocationIdentifier": "15567", "MonitoringLocationName": "Pease Brook", "MaxScore": 3, "MaxScoreYear": 2004.0, "RecentScore": 3, "RecentYear": 2004.0 }, "geometry": { "type": "Point", "coordinates": [ -72.187, 41.5807 ] } },
{ "type": "Feature", "properties": { "MonitoringLocationIdentifier": "15570", "MonitoringLocationName": "Ratlum Brook", "MaxScore": 4, "MaxScoreYear": 2006.0, "RecentScore": 2, "RecentYear": 2011.0 }, "geometry": { "type": "Point", "coordinates": [ -72.9561, 41.8723 ] } },
{ "type": "Feature", "properties": { "MonitoringLocationIdentifier": "15571", "MonitoringLocationName": "Cherry Brook", "MaxScore": 5, "MaxScoreYear": 2012.0, "RecentScore": 4, "RecentYear": 2014.0 }, "geometry": { "type": "Point", "coordinates": [ -72.9295, 41.8365 ] } },
{ "type": "Feature", "properties": { "MonitoringLocationIdentifier": "15572", "MonitoringLocationName": "Rattlesnake Hill Brook", "MaxScore": 2, "MaxScoreYear": 2013.0, "RecentScore": 2, "RecentYear": 2013.0 }, "geometry": { "type": "Point", "coordinates": [ -72.9182, 41.8185 ] } },
{ "type": "Feature", "properties": { "MonitoringLocationIdentifier": "15574", "MonitoringLocationName": "Scantic River", "MaxScore": 3, "MaxScoreYear": 2004.0, "RecentScore": 3, "RecentYear": 2004.0 }, "geometry": { "type": "Point", "coordinates": [ -72.4584, 42.033 ] } },
{ "type": "Feature", "properties": { "MonitoringLocationIdentifier": "15575", "MonitoringLocationName": "Little Pootatuck Brook", "MaxScore": 3, "MaxScoreYear": 2006.0, "RecentScore": 3, "RecentYear": 2006.0 }, "geometry": { "type": "Point", "coordinates": [ -73.272, 41.4517 ] } },
{ "type": "Feature", "properties": { "MonitoringLocationIdentifier": "15576", "MonitoringLocationName": "Lee Brook", "MaxScore": 6, "MaxScoreYear": 2005.0, "RecentScore": 2, "RecentYear": 2007.0 }, "geometry": { "type": "Point", "coordinates": [ -73.2289, 41.4334 ] } },
{ "type": "Feature", "properties": { "MonitoringLocationIdentifier": "15577", "MonitoringLocationName": "Kettletown Brook", "MaxScore": 6, "MaxScoreYear": 2006.0, "RecentScore": 1, "RecentYear": 2007.0 }, "geometry": { "type": "Point", "coordinates": [ -73.206, 41.427 ] } },
{ "type": "Feature", "properties": { "MonitoringLocationIdentifier": "15579", "MonitoringLocationName": "Hitchcock Mill Brook", "MaxScore": 3, "MaxScoreYear": 2005.0, "RecentScore": 3, "RecentYear": 2007.0 }, "geometry": { "type": "Point", "coordinates": [ -73.374487, 41.503614 ] } },
{ "type": "Feature", "properties": { "MonitoringLocationIdentifier": "15580", "MonitoringLocationName": "Town Farm Brook", "MaxScore": 4, "MaxScoreYear": 2006.0, "RecentScore": 2, "RecentYear": 2007.0 }, "geometry": { "type": "Point", "coordinates": [ -73.3936, 41.5648 ] } },
{ "type": "Feature", "properties": { "MonitoringLocationIdentifier": "15581", "MonitoringLocationName": "Pond Brook", "MaxScore": 5, "MaxScoreYear": 2011.0, "RecentScore": 3, "RecentYear": 2014.0 }, "geometry": { "type": "Point", "coordinates": [ -73.3275, 41.4597 ] } },
{ "type": "Feature", "properties": { "MonitoringLocationIdentifier": "15582", "MonitoringLocationName": "Hop Brook", "MaxScore": 7, "MaxScoreYear": 2006.0, "RecentScore": 7, "RecentYear": 2006.0 }, "geometry": { "type": "Point", "coordinates": [ -73.3856, 41.4855 ] } },
{ "type": "Feature", "properties": { "MonitoringLocationIdentifier": "15592", "MonitoringLocationName": "French Brook", "MaxScore": 5, "MaxScoreYear": 2011.0, "RecentScore": 0, "RecentYear": 2022.0 }, "geometry": { "type": "Point", "coordinates": [ -72.4485, 41.7442 ] } },
{ "type": "Feature", "properties": { "MonitoringLocationIdentifier": "15593", "MonitoringLocationName": "Tankerhoosen River", "MaxScore": 3, "MaxScoreYear": 2004.0, "RecentScore": 3, "RecentYear": 2004.0 }, "geometry": { "type": "Point", "coordinates": [ -72.4343, 41.8442 ] } },
{ "type": "Feature", "properties": { "MonitoringLocationIdentifier": "15594", "MonitoringLocationName": "Barrows Brook", "MaxScore": 6, "MaxScoreYear": 2014.0, "RecentScore": 3, "RecentYear": 2023.0 }, "geometry": { "type": "Point", "coordinates": [ -72.4365, 41.8402 ] } },
{ "type": "Feature", "properties": { "MonitoringLocationIdentifier": "15595", "MonitoringLocationName": "Gages Brook, tributary to", "MaxScore": 0, "MaxScoreYear": 2004.0, "RecentScore": 0, "RecentYear": 2004.0 }, "geometry": { "type": "Point", "coordinates": [ -72.418, 41.8551 ] } },
{ "type": "Feature", "properties": { "MonitoringLocationIdentifier": "15599", "MonitoringLocationName": "Mashamoquet Brook", "MaxScore": 5, "MaxScoreYear": 2009.0, "RecentScore": 4, "RecentYear": 2019.0 }, "geometry": { "type": "Point", "coordinates": [ -71.9758, 41.8561 ] } },
{ "type": "Feature", "properties": { "MonitoringLocationIdentifier": "15600", "MonitoringLocationName": "Still River", "MaxScore": 3, "MaxScoreYear": 2006.0, "RecentScore": 3, "RecentYear": 2008.0 }, "geometry": { "type": "Point", "coordinates": [ -72.0787, 41.9026 ] } },
{ "type": "Feature", "properties": { "MonitoringLocationIdentifier": "15603", "MonitoringLocationName": "Beaver Brook", "MaxScore": 1, "MaxScoreYear": 2006.0, "RecentScore": 0, "RecentYear": 2008.0 }, "geometry": { "type": "Point", "coordinates": [ -73.3592, 41.1972 ] } },
{ "type": "Feature", "properties": { "MonitoringLocationIdentifier": "15667", "MonitoringLocationName": "Still River", "MaxScore": 1, "MaxScoreYear": 2011.0, "RecentScore": 1, "RecentYear": 2011.0 }, "geometry": { "type": "Point", "coordinates": [ -73.4217, 41.413 ] } },
{ "type": "Feature", "properties": { "MonitoringLocationIdentifier": "15680", "MonitoringLocationName": "Beaver Brook", "MaxScore": 5, "MaxScoreYear": 2023.0, "RecentScore": 5, "RecentYear": 2023.0 }, "geometry": { "type": "Point", "coordinates": [ -72.9958, 41.9513 ] } },
{ "type": "Feature", "properties": { "MonitoringLocationIdentifier": "15681", "MonitoringLocationName": "Shetucket River", "MaxScore": 1, "MaxScoreYear": 2005.0, "RecentScore": 1, "RecentYear": 2005.0 }, "geometry": { "type": "Point", "coordinates": [ -72.11, 41.6601 ] } },
{ "type": "Feature", "properties": { "MonitoringLocationIdentifier": "15682", "MonitoringLocationName": "Shetucket River", "MaxScore": 4, "MaxScoreYear": 2005.0, "RecentScore": 4, "RecentYear": 2005.0 }, "geometry": { "type": "Point", "coordinates": [ -72.0977, 41.6382 ] } },
{ "type": "Feature", "properties": { "MonitoringLocationIdentifier": "15683", "MonitoringLocationName": "Shetucket River", "MaxScore": 2, "MaxScoreYear": 2005.0, "RecentScore": 2, "RecentYear": 2005.0 }, "geometry": { "type": "Point", "coordinates": [ -72.0833, 41.6168 ] } },
{ "type": "Feature", "properties": { "MonitoringLocationIdentifier": "15689", "MonitoringLocationName": "Moodus River", "MaxScore": 2, "MaxScoreYear": 2008.0, "RecentScore": 2, "RecentYear": 2008.0 }, "geometry": { "type": "Point", "coordinates": [ -72.4599, 41.4959 ] } },
{ "type": "Feature", "properties": { "MonitoringLocationIdentifier": "15694", "MonitoringLocationName": "Roaring Brook", "MaxScore": 1, "MaxScoreYear": 2007.0, "RecentScore": 1, "RecentYear": 2007.0 }, "geometry": { "type": "Point", "coordinates": [ -72.5861, 41.6639 ] } },
{ "type": "Feature", "properties": { "MonitoringLocationIdentifier": "15707", "MonitoringLocationName": "Deep Brook", "MaxScore": 3, "MaxScoreYear": 2020.0, "RecentScore": 3, "RecentYear": 2020.0 }, "geometry": { "type": "Point", "coordinates": [ -73.2888, 41.4069 ] } },
{ "type": "Feature", "properties": { "MonitoringLocationIdentifier": "15710", "MonitoringLocationName": "Little River", "MaxScore": 5, "MaxScoreYear": 2009.0, "RecentScore": 4, "RecentYear": 2010.0 }, "geometry": { "type": "Point", "coordinates": [ -72.0489, 41.6916 ] } },
{ "type": "Feature", "properties": { "MonitoringLocationIdentifier": "15711", "MonitoringLocationName": "Little River", "MaxScore": 2, "MaxScoreYear": 2011.0, "RecentScore": 2, "RecentYear": 2011.0 }, "geometry": { "type": "Point", "coordinates": [ -72.0473, 41.7561 ] } },
{ "type": "Feature", "properties": { "MonitoringLocationIdentifier": "15713", "MonitoringLocationName": "Still River", "MaxScore": 4, "MaxScoreYear": 2012.0, "RecentScore": 3, "RecentYear": 2015.0 }, "geometry": { "type": "Point", "coordinates": [ -72.0774, 41.9158 ] } },
{ "type": "Feature", "properties": { "MonitoringLocationIdentifier": "15715", "MonitoringLocationName": "Cedar Swamp Brook", "MaxScore": 5, "MaxScoreYear": 2012.0, "RecentScore": 3, "RecentYear": 2014.0 }, "geometry": { "type": "Point", "coordinates": [ -72.2841, 41.811 ] } },
{ "type": "Feature", "properties": { "MonitoringLocationIdentifier": "15732", "MonitoringLocationName": "Fenton River", "MaxScore": 5, "MaxScoreYear": 2019.0, "RecentScore": 5, "RecentYear": 2019.0 }, "geometry": { "type": "Point", "coordinates": [ -72.2415, 41.8509 ] } },
{ "type": "Feature", "properties": { "MonitoringLocationIdentifier": "15735", "MonitoringLocationName": "Fenton River", "MaxScore": 3, "MaxScoreYear": 2012.0, "RecentScore": 3, "RecentYear": 2012.0 }, "geometry": { "type": "Point", "coordinates": [ -72.2254, 41.8147 ] } },
{ "type": "Feature", "properties": { "MonitoringLocationIdentifier": "15762", "MonitoringLocationName": "Roaring Brook", "MaxScore": 2, "MaxScoreYear": 2005.0, "RecentScore": 2, "RecentYear": 2005.0 }, "geometry": { "type": "Point", "coordinates": [ -72.2904, 41.903 ] } },
{ "type": "Feature", "properties": { "MonitoringLocationIdentifier": "15763", "MonitoringLocationName": "Deep Brook", "MaxScore": 3, "MaxScoreYear": 2006.0, "RecentScore": 3, "RecentYear": 2006.0 }, "geometry": { "type": "Point", "coordinates": [ -73.2926, 41.4059 ] } },
{ "type": "Feature", "properties": { "MonitoringLocationIdentifier": "15764", "MonitoringLocationName": "Deep Brook", "MaxScore": 4, "MaxScoreYear": 2022.0, "RecentScore": 2, "RecentYear": 2024.0 }, "geometry": { "type": "Point", "coordinates": [ -73.2867, 41.4082 ] } },
{ "type": "Feature", "properties": { "MonitoringLocationIdentifier": "15765", "MonitoringLocationName": "Quinebaug River, tributary to (Auger Pond outlet)", "MaxScore": 2, "MaxScoreYear": 2005.0, "RecentScore": 2, "RecentYear": 2005.0 }, "geometry": { "type": "Point", "coordinates": [ -71.9255, 41.9897 ] } },
{ "type": "Feature", "properties": { "MonitoringLocationIdentifier": "15766", "MonitoringLocationName": "Jordan Brook", "MaxScore": 3, "MaxScoreYear": 2005.0, "RecentScore": 3, "RecentYear": 2005.0 }, "geometry": { "type": "Point", "coordinates": [ -71.9591, 42.0167 ] } },
{ "type": "Feature", "properties": { "MonitoringLocationIdentifier": "15767", "MonitoringLocationName": "Morgan Brook", "MaxScore": 3, "MaxScoreYear": 2005.0, "RecentScore": 3, "RecentYear": 2005.0 }, "geometry": { "type": "Point", "coordinates": [ -73.0184, 41.9122 ] } },
{ "type": "Feature", "properties": { "MonitoringLocationIdentifier": "15768", "MonitoringLocationName": "Mallory Brook", "MaxScore": 2, "MaxScoreYear": 2005.0, "RecentScore": 2, "RecentYear": 2005.0 }, "geometry": { "type": "Point", "coordinates": [ -73.0263, 41.9113 ] } },
{ "type": "Feature", "properties": { "MonitoringLocationIdentifier": "15769", "MonitoringLocationName": "Wepawaug River", "MaxScore": 5, "MaxScoreYear": 2006.0, "RecentScore": 2, "RecentYear": 2010.0 }, "geometry": { "type": "Point", "coordinates": [ -73.0409, 41.2835 ] } },
{ "type": "Feature", "properties": { "MonitoringLocationIdentifier": "15770", "MonitoringLocationName": "Gulf Stream", "MaxScore": 3, "MaxScoreYear": 2005.0, "RecentScore": 3, "RecentYear": 2005.0 }, "geometry": { "type": "Point", "coordinates": [ -72.436, 41.9828 ] } },
{ "type": "Feature", "properties": { "MonitoringLocationIdentifier": "15771", "MonitoringLocationName": "Willow Brook", "MaxScore": 1, "MaxScoreYear": 2005.0, "RecentScore": 1, "RecentYear": 2005.0 }, "geometry": { "type": "Point", "coordinates": [ -72.7958, 41.6549 ] } },
{ "type": "Feature", "properties": { "MonitoringLocationIdentifier": "15772", "MonitoringLocationName": "Willow Brook", "MaxScore": 0, "MaxScoreYear": 2005.0, "RecentScore": 0, "RecentYear": 2005.0 }, "geometry": { "type": "Point", "coordinates": [ -72.7935, 41.6555 ] } },
{ "type": "Feature", "properties": { "MonitoringLocationIdentifier": "15783", "MonitoringLocationName": "Eagleville Brook", "MaxScore": 2, "MaxScoreYear": 2007.0, "RecentScore": 2, "RecentYear": 2014.0 }, "geometry": { "type": "Point", "coordinates": [ -72.2776, 41.7882 ] } },
{ "type": "Feature", "properties": { "MonitoringLocationIdentifier": "15803", "MonitoringLocationName": "LITTLE RIVER", "MaxScore": 4, "MaxScoreYear": 2007.0, "RecentScore": 4, "RecentYear": 2007.0 }, "geometry": { "type": "Point", "coordinates": [ -72.0528, 41.6717 ] } },
{ "type": "Feature", "properties": { "MonitoringLocationIdentifier": "15820", "MonitoringLocationName": "HOUSATONIC RIVER", "MaxScore": 3, "MaxScoreYear": 2010.0, "RecentScore": 3, "RecentYear": 2010.0 }, "geometry": { "type": "Point", "coordinates": [ -73.3697, 41.9572 ] } },
{ "type": "Feature", "properties": { "MonitoringLocationIdentifier": "15825", "MonitoringLocationName": "West Branch Farmington River", "MaxScore": 4, "MaxScoreYear": 2008.0, "RecentScore": 4, "RecentYear": 2008.0 }, "geometry": { "type": "Point", "coordinates": [ -72.989, 41.9168 ] } },
{ "type": "Feature", "properties": { "MonitoringLocationIdentifier": "15838", "MonitoringLocationName": "Wappoquia Brook", "MaxScore": 5, "MaxScoreYear": 2014.0, "RecentScore": 5, "RecentYear": 2014.0 }, "geometry": { "type": "Point", "coordinates": [ -71.960352, 41.868957 ] } },
{ "type": "Feature", "properties": { "MonitoringLocationIdentifier": "15839", "MonitoringLocationName": "Deep Brook, tributary to (\"Oil Creek\" or \"Meeker Brook\")", "MaxScore": 4, "MaxScoreYear": 2024.0, "RecentScore": 4, "RecentYear": 2024.0 }, "geometry": { "type": "Point", "coordinates": [ -73.2882, 41.407 ] } },
{ "type": "Feature", "properties": { "MonitoringLocationIdentifier": "15840", "MonitoringLocationName": "Eaton Brook", "MaxScore": 0, "MaxScoreYear": 2005.0, "RecentScore": 0, "RecentYear": 2005.0 }, "geometry": { "type": "Point", "coordinates": [ -72.9242, 41.4244 ] } },
{ "type": "Feature", "properties": { "MonitoringLocationIdentifier": "15841", "MonitoringLocationName": "Bog Meadow Brook", "MaxScore": 0, "MaxScoreYear": 2005.0, "RecentScore": 0, "RecentYear": 2005.0 }, "geometry": { "type": "Point", "coordinates": [ -73.4514, 41.8537 ] } },
{ "type": "Feature", "properties": { "MonitoringLocationIdentifier": "15842", "MonitoringLocationName": "Bog Meadow Brook", "MaxScore": 4, "MaxScoreYear": 2005.0, "RecentScore": 4, "RecentYear": 2005.0 }, "geometry": { "type": "Point", "coordinates": [ -73.461, 41.8575 ] } },
{ "type": "Feature", "properties": { "MonitoringLocationIdentifier": "15844", "MonitoringLocationName": "Still River", "MaxScore": 5, "MaxScoreYear": 2009.0, "RecentScore": 3, "RecentYear": 2013.0 }, "geometry": { "type": "Point", "coordinates": [ -73.02, 41.96 ] } },
{ "type": "Feature", "properties": { "MonitoringLocationIdentifier": "15845", "MonitoringLocationName": "Macedonia Brook", "MaxScore": 6, "MaxScoreYear": 2014.0, "RecentScore": 6, "RecentYear": 2014.0 }, "geometry": { "type": "Point", "coordinates": [ -73.4936, 41.7626 ] } },
{ "type": "Feature", "properties": { "MonitoringLocationIdentifier": "15854", "MonitoringLocationName": "Muddy River", "MaxScore": 4, "MaxScoreYear": 2012.0, "RecentScore": 3, "RecentYear": 2013.0 }, "geometry": { "type": "Point", "coordinates": [ -72.8012, 41.4151 ] } },
{ "type": "Feature", "properties": { "MonitoringLocationIdentifier": "15856", "MonitoringLocationName": "Misery Brook", "MaxScore": 0, "MaxScoreYear": 2007.0, "RecentScore": 0, "RecentYear": 2012.0 }, "geometry": { "type": "Point", "coordinates": [ -72.8733, 41.5699 ] } },
{ "type": "Feature", "properties": { "MonitoringLocationIdentifier": "15878", "MonitoringLocationName": "Muddy Brook", "MaxScore": 1, "MaxScoreYear": 2010.0, "RecentScore": 1, "RecentYear": 2010.0 }, "geometry": { "type": "Point", "coordinates": [ -71.9619, 41.9665 ] } },
{ "type": "Feature", "properties": { "MonitoringLocationIdentifier": "15881", "MonitoringLocationName": "Mount Hope River", "MaxScore": 4, "MaxScoreYear": 2011.0, "RecentScore": 4, "RecentYear": 2011.0 }, "geometry": { "type": "Point", "coordinates": [ -72.1608, 41.8685 ] } },
{ "type": "Feature", "properties": { "MonitoringLocationIdentifier": "15887", "MonitoringLocationName": "Shepaug River", "MaxScore": 6, "MaxScoreYear": 2007.0, "RecentScore": 3, "RecentYear": 2013.0 }, "geometry": { "type": "Point", "coordinates": [ -73.2904, 41.7019 ] } },
{ "type": "Feature", "properties": { "MonitoringLocationIdentifier": "15888", "MonitoringLocationName": "Fawn Brook, West Branch headwaters", "MaxScore": 4, "MaxScoreYear": 2018.0, "RecentScore": 4, "RecentYear": 2018.0 }, "geometry": { "type": "Point", "coordinates": [ -72.4155, 41.6392 ] } },
{ "type": "Feature", "properties": { "MonitoringLocationIdentifier": "15889", "MonitoringLocationName": "Broad Brook", "MaxScore": 3, "MaxScoreYear": 2009.0, "RecentScore": 3, "RecentYear": 2009.0 }, "geometry": { "type": "Point", "coordinates": [ -71.9703, 41.5538 ] } },
{ "type": "Feature", "properties": { "MonitoringLocationIdentifier": "15890", "MonitoringLocationName": "Chatfield Hollow Brook", "MaxScore": 2, "MaxScoreYear": 2006.0, "RecentScore": 2, "RecentYear": 2007.0 }, "geometry": { "type": "Point", "coordinates": [ -72.5906, 41.3392 ] } },
{ "type": "Feature", "properties": { "MonitoringLocationIdentifier": "15892", "MonitoringLocationName": "Shetucket River", "MaxScore": 2, "MaxScoreYear": 2007.0, "RecentScore": 2, "RecentYear": 2007.0 }, "geometry": { "type": "Point", "coordinates": [ -72.085, 41.6175 ] } },
{ "type": "Feature", "properties": { "MonitoringLocationIdentifier": "15955", "MonitoringLocationName": "Laurel Brook", "MaxScore": 1, "MaxScoreYear": 2007.0, "RecentScore": 1, "RecentYear": 2007.0 }, "geometry": { "type": "Point", "coordinates": [ -72.686, 41.5361 ] } },
{ "type": "Feature", "properties": { "MonitoringLocationIdentifier": "15965", "MonitoringLocationName": "Meadow Brook", "MaxScore": 3, "MaxScoreYear": 2014.0, "RecentScore": 3, "RecentYear": 2014.0 }, "geometry": { "type": "Point", "coordinates": [ -72.3868, 41.5871 ] } },
{ "type": "Feature", "properties": { "MonitoringLocationIdentifier": "15977", "MonitoringLocationName": "Indian Hole Brook", "MaxScore": 2, "MaxScoreYear": 2006.0, "RecentScore": 2, "RecentYear": 2007.0 }, "geometry": { "type": "Point", "coordinates": [ -73.1246, 41.3388 ] } },
{ "type": "Feature", "properties": { "MonitoringLocationIdentifier": "15979", "MonitoringLocationName": "Beaver Brook", "MaxScore": 1, "MaxScoreYear": 2006.0, "RecentScore": 1, "RecentYear": 2007.0 }, "geometry": { "type": "Point", "coordinates": [ -73.0714, 41.3443 ] } },
{ "type": "Feature", "properties": { "MonitoringLocationIdentifier": "15980", "MonitoringLocationName": "Farmill River", "MaxScore": 2, "MaxScoreYear": 2007.0, "RecentScore": 2, "RecentYear": 2007.0 }, "geometry": { "type": "Point", "coordinates": [ -73.1302, 41.2785 ] } },
{ "type": "Feature", "properties": { "MonitoringLocationIdentifier": "15988", "MonitoringLocationName": "Bebbington Brook", "MaxScore": 6, "MaxScoreYear": 2021.0, "RecentScore": 6, "RecentYear": 2021.0 }, "geometry": { "type": "Point", "coordinates": [ -72.1593, 41.8447 ] } },
{ "type": "Feature", "properties": { "MonitoringLocationIdentifier": "15995", "MonitoringLocationName": "Fourmile River", "MaxScore": 4, "MaxScoreYear": 2006.0, "RecentScore": 2, "RecentYear": 2007.0 }, "geometry": { "type": "Point", "coordinates": [ -73.1399, 41.3645 ] } },
{ "type": "Feature", "properties": { "MonitoringLocationIdentifier": "15996", "MonitoringLocationName": "Fenn Brook", "MaxScore": 2, "MaxScoreYear": 2014.0, "RecentScore": 2, "RecentYear": 2014.0 }, "geometry": { "type": "Point", "coordinates": [ -73.3134, 41.561 ] } },
{ "type": "Feature", "properties": { "MonitoringLocationIdentifier": "15998", "MonitoringLocationName": "Town Farm Brook (\"Clatter Valley Brook\")", "MaxScore": 4, "MaxScoreYear": 2004.0, "RecentScore": 2, "RecentYear": 2012.0 }, "geometry": { "type": "Point", "coordinates": [ -73.3889, 41.5477 ] } },
{ "type": "Feature", "properties": { "MonitoringLocationIdentifier": "16014", "MonitoringLocationName": "Kitt Brook", "MaxScore": 0, "MaxScoreYear": 2009.0, "RecentScore": 0, "RecentYear": 2009.0 }, "geometry": { "type": "Point", "coordinates": [ -71.9899, 41.6967 ] } },
{ "type": "Feature", "properties": { "MonitoringLocationIdentifier": "16022", "MonitoringLocationName": "Weekeepeemee River", "MaxScore": 4, "MaxScoreYear": 2011.0, "RecentScore": 4, "RecentYear": 2011.0 }, "geometry": { "type": "Point", "coordinates": [ -73.2292, 41.5856 ] } },
{ "type": "Feature", "properties": { "MonitoringLocationIdentifier": "16036", "MonitoringLocationName": "Pomperaug River", "MaxScore": 5, "MaxScoreYear": 2006.0, "RecentScore": 3, "RecentYear": 2013.0 }, "geometry": { "type": "Point", "coordinates": [ -73.2136, 41.5365 ] } },
{ "type": "Feature", "properties": { "MonitoringLocationIdentifier": "16037", "MonitoringLocationName": "Tom Brook", "MaxScore": 1, "MaxScoreYear": 2006.0, "RecentScore": 1, "RecentYear": 2006.0 }, "geometry": { "type": "Point", "coordinates": [ -73.283, 41.4151 ] } },
{ "type": "Feature", "properties": { "MonitoringLocationIdentifier": "16038", "MonitoringLocationName": "Deep Brook", "MaxScore": 3, "MaxScoreYear": 2012.0, "RecentScore": 1, "RecentYear": 2013.0 }, "geometry": { "type": "Point", "coordinates": [ -73.3079, 41.4029 ] } },
{ "type": "Feature", "properties": { "MonitoringLocationIdentifier": "16039", "MonitoringLocationName": "Deep Brook", "MaxScore": 2, "MaxScoreYear": 2011.0, "RecentScore": 2, "RecentYear": 2014.0 }, "geometry": { "type": "Point", "coordinates": [ -73.2947, 41.4023 ] } },
{ "type": "Feature", "properties": { "MonitoringLocationIdentifier": "16040", "MonitoringLocationName": "Deep Brook", "MaxScore": 3, "MaxScoreYear": 2006.0, "RecentScore": 3, "RecentYear": 2006.0 }, "geometry": { "type": "Point", "coordinates": [ -73.3034, 41.4007 ] } },
{ "type": "Feature", "properties": { "MonitoringLocationIdentifier": "16041", "MonitoringLocationName": "Hammonasset River", "MaxScore": 4, "MaxScoreYear": 2007.0, "RecentScore": 4, "RecentYear": 2007.0 }, "geometry": { "type": "Point", "coordinates": [ -72.6109, 41.3275 ] } },
{ "type": "Feature", "properties": { "MonitoringLocationIdentifier": "16042", "MonitoringLocationName": "Indian River", "MaxScore": 4, "MaxScoreYear": 2006.0, "RecentScore": 4, "RecentYear": 2006.0 }, "geometry": { "type": "Point", "coordinates": [ -72.533, 41.311 ] } },
{ "type": "Feature", "properties": { "MonitoringLocationIdentifier": "16043", "MonitoringLocationName": "Menunketesuck River", "MaxScore": 0, "MaxScoreYear": 2006.0, "RecentScore": 0, "RecentYear": 2006.0 }, "geometry": { "type": "Point", "coordinates": [ -72.5142, 41.3026 ] } },
{ "type": "Feature", "properties": { "MonitoringLocationIdentifier": "16044", "MonitoringLocationName": "Chatfield Hollow Brook", "MaxScore": 2, "MaxScoreYear": 2009.0, "RecentScore": 2, "RecentYear": 2009.0 }, "geometry": { "type": "Point", "coordinates": [ -72.593, 41.3742 ] } },
{ "type": "Feature", "properties": { "MonitoringLocationIdentifier": "16045", "MonitoringLocationName": "West Branch Saugatuck River", "MaxScore": 2, "MaxScoreYear": 2006.0, "RecentScore": 1, "RecentYear": 2013.0 }, "geometry": { "type": "Point", "coordinates": [ -73.3875, 41.1947 ] } },
{ "type": "Feature", "properties": { "MonitoringLocationIdentifier": "16055", "MonitoringLocationName": "Willimantic River", "MaxScore": 4, "MaxScoreYear": 2006.0, "RecentScore": 2, "RecentYear": 2007.0 }, "geometry": { "type": "Point", "coordinates": [ -72.314, 41.823 ] } },
{ "type": "Feature", "properties": { "MonitoringLocationIdentifier": "16063", "MonitoringLocationName": "Marshepaug River", "MaxScore": 2, "MaxScoreYear": 2012.0, "RecentScore": 2, "RecentYear": 2012.0 }, "geometry": { "type": "Point", "coordinates": [ -73.2663, 41.7794 ] } },
{ "type": "Feature", "properties": { "MonitoringLocationIdentifier": "16064", "MonitoringLocationName": "Umpawaug Pond Brook", "MaxScore": 3, "MaxScoreYear": 2009.0, "RecentScore": 2, "RecentYear": 2013.0 }, "geometry": { "type": "Point", "coordinates": [ -73.4443, 41.3169 ] } },
{ "type": "Feature", "properties": { "MonitoringLocationIdentifier": "16070", "MonitoringLocationName": "Pine Brook", "MaxScore": 2, "MaxScoreYear": 2010.0, "RecentScore": 2, "RecentYear": 2010.0 }, "geometry": { "type": "Point", "coordinates": [ -72.5001, 41.5183 ] } },
{ "type": "Feature", "properties": { "MonitoringLocationIdentifier": "16081", "MonitoringLocationName": "Phelps Brook", "MaxScore": 2, "MaxScoreYear": 2006.0, "RecentScore": 2, "RecentYear": 2007.0 }, "geometry": { "type": "Point", "coordinates": [ -72.6683, 41.8891 ] } },
{ "type": "Feature", "properties": { "MonitoringLocationIdentifier": "16082", "MonitoringLocationName": "Bunnell Brook (Burlington Brook)", "MaxScore": 5, "MaxScoreYear": 2006.0, "RecentScore": 2, "RecentYear": 2012.0 }, "geometry": { "type": "Point", "coordinates": [ -72.9247, 41.7833 ] } },
{ "type": "Feature", "properties": { "MonitoringLocationIdentifier": "16083", "MonitoringLocationName": "Halfway River", "MaxScore": 3, "MaxScoreYear": 2006.0, "RecentScore": 3, "RecentYear": 2006.0 }, "geometry": { "type": "Point", "coordinates": [ -73.1885, 41.3887 ] } },
{ "type": "Feature", "properties": { "MonitoringLocationIdentifier": "16084", "MonitoringLocationName": "Still River", "MaxScore": 3, "MaxScoreYear": 2006.0, "RecentScore": 2, "RecentYear": 2019.0 }, "geometry": { "type": "Point", "coordinates": [ -72.09, 41.966 ] } },
{ "type": "Feature", "properties": { "MonitoringLocationIdentifier": "16085", "MonitoringLocationName": "Little River", "MaxScore": 3, "MaxScoreYear": 2012.0, "RecentScore": 3, "RecentYear": 2013.0 }, "geometry": { "type": "Point", "coordinates": [ -71.9205, 41.9182 ] } },
{ "type": "Feature", "properties": { "MonitoringLocationIdentifier": "16088", "MonitoringLocationName": "Lebanon Brook", "MaxScore": 2, "MaxScoreYear": 2006.0, "RecentScore": 1, "RecentYear": 2016.0 }, "geometry": { "type": "Point", "coordinates": [ -72.0836, 41.9945 ] } },
{ "type": "Feature", "properties": { "MonitoringLocationIdentifier": "16089", "MonitoringLocationName": "Morgan Brook", "MaxScore": 7, "MaxScoreYear": 2017.0, "RecentScore": 1, "RecentYear": 2022.0 }, "geometry": { "type": "Point", "coordinates": [ -73.0007, 41.9086 ] } },
{ "type": "Feature", "properties": { "MonitoringLocationIdentifier": "16090", "MonitoringLocationName": "North Branch Park River", "MaxScore": 0, "MaxScoreYear": 2008.0, "RecentScore": 0, "RecentYear": 2008.0 }, "geometry": { "type": "Point", "coordinates": [ -72.7033, 41.7672 ] } },
{ "type": "Feature", "properties": { "MonitoringLocationIdentifier": "16094", "MonitoringLocationName": "Pootatuck River", "MaxScore": 4, "MaxScoreYear": 2019.0, "RecentScore": 4, "RecentYear": 2019.0 }, "geometry": { "type": "Point", "coordinates": [ -73.282, 41.4222 ] } },
{ "type": "Feature", "properties": { "MonitoringLocationIdentifier": "16096", "MonitoringLocationName": "Deep Brook", "MaxScore": 2, "MaxScoreYear": 2009.0, "RecentScore": 2, "RecentYear": 2009.0 }, "geometry": { "type": "Point", "coordinates": [ -73.2946, 41.3977 ] } },
{ "type": "Feature", "properties": { "MonitoringLocationIdentifier": "16100", "MonitoringLocationName": "Bark Meadow Brook", "MaxScore": 0, "MaxScoreYear": 2006.0, "RecentScore": 0, "RecentYear": 2006.0 }, "geometry": { "type": "Point", "coordinates": [ -71.9371, 41.8885 ] } },
{ "type": "Feature", "properties": { "MonitoringLocationIdentifier": "16101", "MonitoringLocationName": "North Kent Brook", "MaxScore": 3, "MaxScoreYear": 2014.0, "RecentScore": 3, "RecentYear": 2014.0 }, "geometry": { "type": "Point", "coordinates": [ -73.4397, 41.7831 ] } },
{ "type": "Feature", "properties": { "MonitoringLocationIdentifier": "16102", "MonitoringLocationName": "Pond Mountain Brook (Tributary to Blatz Pond)", "MaxScore": 3, "MaxScoreYear": 2006.0, "RecentScore": 3, "RecentYear": 2006.0 }, "geometry": { "type": "Point", "coordinates": [ -73.4616, 41.7732 ] } },
{ "type": "Feature", "properties": { "MonitoringLocationIdentifier": "16108", "MonitoringLocationName": "Knowlton Brook", "MaxScore": 3, "MaxScoreYear": 2014.0, "RecentScore": 3, "RecentYear": 2014.0 }, "geometry": { "type": "Point", "coordinates": [ -72.1783, 41.8492 ] } },
{ "type": "Feature", "properties": { "MonitoringLocationIdentifier": "16114", "MonitoringLocationName": "Rugg Brook", "MaxScore": 8, "MaxScoreYear": 2014.0, "RecentScore": 8, "RecentYear": 2014.0 }, "geometry": { "type": "Point", "coordinates": [ -73.1214, 41.9328 ] } },
{ "type": "Feature", "properties": { "MonitoringLocationIdentifier": "16119", "MonitoringLocationName": "Day Pond Brook", "MaxScore": 3, "MaxScoreYear": 2015.0, "RecentScore": 2, "RecentYear": 2016.0 }, "geometry": { "type": "Point", "coordinates": [ -72.4338, 41.5623 ] } },
{ "type": "Feature", "properties": { "MonitoringLocationIdentifier": "16121", "MonitoringLocationName": "Flat Brook", "MaxScore": 5, "MaxScoreYear": 2018.0, "RecentScore": 5, "RecentYear": 2024.0 }, "geometry": { "type": "Point", "coordinates": [ -72.4523, 41.5544 ] } },
{ "type": "Feature", "properties": { "MonitoringLocationIdentifier": "16122", "MonitoringLocationName": "Early Brook", "MaxScore": 5, "MaxScoreYear": 2016.0, "RecentScore": 4, "RecentYear": 2019.0 }, "geometry": { "type": "Point", "coordinates": [ -72.3435, 41.4978 ] } },
{ "type": "Feature", "properties": { "MonitoringLocationIdentifier": "16123", "MonitoringLocationName": "Muddy Brook", "MaxScore": 6, "MaxScoreYear": 2020.0, "RecentScore": 4, "RecentYear": 2024.0 }, "geometry": { "type": "Point", "coordinates": [ -72.342, 41.4756 ] } },
{ "type": "Feature", "properties": { "MonitoringLocationIdentifier": "16128", "MonitoringLocationName": "Stonehouse Brook", "MaxScore": 3, "MaxScoreYear": 2012.0, "RecentScore": 3, "RecentYear": 2016.0 }, "geometry": { "type": "Point", "coordinates": [ -72.1509, 41.7812 ] } },
{ "type": "Feature", "properties": { "MonitoringLocationIdentifier": "16131", "MonitoringLocationName": "Chatfield Hollow Brook", "MaxScore": 3, "MaxScoreYear": 2007.0, "RecentScore": 3, "RecentYear": 2007.0 }, "geometry": { "type": "Point", "coordinates": [ -72.595, 41.3314 ] } },
{ "type": "Feature", "properties": { "MonitoringLocationIdentifier": "16132", "MonitoringLocationName": "Meetinghouse Brook", "MaxScore": 1, "MaxScoreYear": 2007.0, "RecentScore": 0, "RecentYear": 2011.0 }, "geometry": { "type": "Point", "coordinates": [ -72.8096, 41.4941 ] } },
{ "type": "Feature", "properties": { "MonitoringLocationIdentifier": "16133", "MonitoringLocationName": "Wharton Brook", "MaxScore": 0, "MaxScoreYear": 2007.0, "RecentScore": 0, "RecentYear": 2007.0 }, "geometry": { "type": "Point", "coordinates": [ -72.8321, 41.4324 ] } },
{ "type": "Feature", "properties": { "MonitoringLocationIdentifier": "16139", "MonitoringLocationName": "Brown Brook", "MaxScore": 6, "MaxScoreYear": 2015.0, "RecentScore": 6, "RecentYear": 2015.0 }, "geometry": { "type": "Point", "coordinates": [ -73.2799, 41.9267 ] } },
{ "type": "Feature", "properties": { "MonitoringLocationIdentifier": "16143", "MonitoringLocationName": "Little River", "MaxScore": 3, "MaxScoreYear": 2008.0, "RecentScore": 1, "RecentYear": 2009.0 }, "geometry": { "type": "Point", "coordinates": [ -73.3678, 41.2931 ] } },
{ "type": "Feature", "properties": { "MonitoringLocationIdentifier": "16146", "MonitoringLocationName": "East Branch Byram River", "MaxScore": 2, "MaxScoreYear": 2016.0, "RecentScore": 1, "RecentYear": 2024.0 }, "geometry": { "type": "Point", "coordinates": [ -73.6748, 41.0612 ] } },
{ "type": "Feature", "properties": { "MonitoringLocationIdentifier": "16167", "MonitoringLocationName": "Jeremy River", "MaxScore": 5, "MaxScoreYear": 2010.0, "RecentScore": 2, "RecentYear": 2015.0 }, "geometry": { "type": "Point", "coordinates": [ -72.3948, 41.5894 ] } },
{ "type": "Feature", "properties": { "MonitoringLocationIdentifier": "16207", "MonitoringLocationName": "English Neighborhood Brook", "MaxScore": 6, "MaxScoreYear": 2017.0, "RecentScore": 6, "RecentYear": 2017.0 }, "geometry": { "type": "Point", "coordinates": [ -71.9984, 41.992 ] } },
{ "type": "Feature", "properties": { "MonitoringLocationIdentifier": "16211", "MonitoringLocationName": "Mill Brook", "MaxScore": 2, "MaxScoreYear": 2014.0, "RecentScore": 2, "RecentYear": 2014.0 }, "geometry": { "type": "Point", "coordinates": [ -71.9904, 41.938 ] } },
{ "type": "Feature", "properties": { "MonitoringLocationIdentifier": "16212", "MonitoringLocationName": "Mill Brook", "MaxScore": 1, "MaxScoreYear": 2009.0, "RecentScore": 1, "RecentYear": 2009.0 }, "geometry": { "type": "Point", "coordinates": [ -71.9573, 41.9401 ] } },
{ "type": "Feature", "properties": { "MonitoringLocationIdentifier": "16214", "MonitoringLocationName": "Muddy Brook", "MaxScore": 3, "MaxScoreYear": 2011.0, "RecentScore": 3, "RecentYear": 2017.0 }, "geometry": { "type": "Point", "coordinates": [ -71.9806, 41.9841 ] } },
{ "type": "Feature", "properties": { "MonitoringLocationIdentifier": "16219", "MonitoringLocationName": "Taylor Brook", "MaxScore": 2, "MaxScoreYear": 2014.0, "RecentScore": 1, "RecentYear": 2017.0 }, "geometry": { "type": "Point", "coordinates": [ -72.0045, 41.9502 ] } },
{ "type": "Feature", "properties": { "MonitoringLocationIdentifier": "16236", "MonitoringLocationName": "East Branch Salmon Brook", "MaxScore": 6, "MaxScoreYear": 2009.0, "RecentScore": 2, "RecentYear": 2011.0 }, "geometry": { "type": "Point", "coordinates": [ -72.8066, 41.9813 ] } },
{ "type": "Feature", "properties": { "MonitoringLocationIdentifier": "16238", "MonitoringLocationName": "West Branch Salmon Brook", "MaxScore": 8, "MaxScoreYear": 2021.0, "RecentScore": 8, "RecentYear": 2021.0 }, "geometry": { "type": "Point", "coordinates": [ -72.8169, 41.9393 ] } },
{ "type": "Feature", "properties": { "MonitoringLocationIdentifier": "16242", "MonitoringLocationName": "Fivemile River", "MaxScore": 3, "MaxScoreYear": 2010.0, "RecentScore": 2, "RecentYear": 2012.0 }, "geometry": { "type": "Point", "coordinates": [ -71.8834, 41.8638 ] } },
{ "type": "Feature", "properties": { "MonitoringLocationIdentifier": "16243", "MonitoringLocationName": "Fivemile River", "MaxScore": 2, "MaxScoreYear": 2007.0, "RecentScore": 2, "RecentYear": 2007.0 }, "geometry": { "type": "Point", "coordinates": [ -71.83, 41.918 ] } },
{ "type": "Feature", "properties": { "MonitoringLocationIdentifier": "16244", "MonitoringLocationName": "Fivemile River", "MaxScore": 2, "MaxScoreYear": 2007.0, "RecentScore": 2, "RecentYear": 2007.0 }, "geometry": { "type": "Point", "coordinates": [ -71.8327, 41.9277 ] } },
{ "type": "Feature", "properties": { "MonitoringLocationIdentifier": "16245", "MonitoringLocationName": "Fivemile River", "MaxScore": 0, "MaxScoreYear": 2007.0, "RecentScore": 0, "RecentYear": 2007.0 }, "geometry": { "type": "Point", "coordinates": [ -71.8301, 41.9411 ] } },
{ "type": "Feature", "properties": { "MonitoringLocationIdentifier": "16246", "MonitoringLocationName": "Fivemile River", "MaxScore": 4, "MaxScoreYear": 2007.0, "RecentScore": 1, "RecentYear": 2008.0 }, "geometry": { "type": "Point", "coordinates": [ -71.8154, 41.9865 ] } },
{ "type": "Feature", "properties": { "MonitoringLocationIdentifier": "16247", "MonitoringLocationName": "Blissville Brook", "MaxScore": 1, "MaxScoreYear": 2007.0, "RecentScore": 1, "RecentYear": 2007.0 }, "geometry": { "type": "Point", "coordinates": [ -72.0192, 41.6039 ] } },
{ "type": "Feature", "properties": { "MonitoringLocationIdentifier": "16248", "MonitoringLocationName": "Cory Brook", "MaxScore": 2, "MaxScoreYear": 2007.0, "RecentScore": 2, "RecentYear": 2007.0 }, "geometry": { "type": "Point", "coordinates": [ -71.9808, 41.6403 ] } },
{ "type": "Feature", "properties": { "MonitoringLocationIdentifier": "16249", "MonitoringLocationName": "Tenmile River", "MaxScore": 0, "MaxScoreYear": 2007.0, "RecentScore": 0, "RecentYear": 2007.0 }, "geometry": { "type": "Point", "coordinates": [ -72.2675, 41.6757 ] } },
{ "type": "Feature", "properties": { "MonitoringLocationIdentifier": "16250", "MonitoringLocationName": "Hop Brook", "MaxScore": 3, "MaxScoreYear": 2007.0, "RecentScore": 2, "RecentYear": 2009.0 }, "geometry": { "type": "Point", "coordinates": [ -73.1075, 41.5377 ] } },
{ "type": "Feature", "properties": { "MonitoringLocationIdentifier": "16251", "MonitoringLocationName": "Eightmile Brook", "MaxScore": 1, "MaxScoreYear": 2007.0, "RecentScore": 1, "RecentYear": 2007.0 }, "geometry": { "type": "Point", "coordinates": [ -73.1649, 41.4539 ] } },
{ "type": "Feature", "properties": { "MonitoringLocationIdentifier": "16252", "MonitoringLocationName": "Deep Brook", "MaxScore": 2, "MaxScoreYear": 2008.0, "RecentScore": 1, "RecentYear": 2008.0 }, "geometry": { "type": "Point", "coordinates": [ -73.2934, 41.4019 ] } },
{ "type": "Feature", "properties": { "MonitoringLocationIdentifier": "16253", "MonitoringLocationName": "Deep Brook", "MaxScore": 4, "MaxScoreYear": 2007.0, "RecentScore": 2, "RecentYear": 2014.0 }, "geometry": { "type": "Point", "coordinates": [ -73.3006, 41.3976 ] } },
{ "type": "Feature", "properties": { "MonitoringLocationIdentifier": "16254", "MonitoringLocationName": "Shepaug River", "MaxScore": 6, "MaxScoreYear": 2010.0, "RecentScore": 4, "RecentYear": 2013.0 }, "geometry": { "type": "Point", "coordinates": [ -73.318, 41.6568 ] } },
{ "type": "Feature", "properties": { "MonitoringLocationIdentifier": "16255", "MonitoringLocationName": "East Branch Salmon Brook", "MaxScore": 6, "MaxScoreYear": 2007.0, "RecentScore": 6, "RecentYear": 2007.0 }, "geometry": { "type": "Point", "coordinates": [ -72.8625, 42.0339 ] } },
{ "type": "Feature", "properties": { "MonitoringLocationIdentifier": "16257", "MonitoringLocationName": "Eightmile River", "MaxScore": 2, "MaxScoreYear": 2007.0, "RecentScore": 2, "RecentYear": 2007.0 }, "geometry": { "type": "Point", "coordinates": [ -72.3389, 41.4114 ] } },
{ "type": "Feature", "properties": { "MonitoringLocationIdentifier": "16258", "MonitoringLocationName": "West Branch Farmington River", "MaxScore": 4, "MaxScoreYear": 2007.0, "RecentScore": 4, "RecentYear": 2007.0 }, "geometry": { "type": "Point", "coordinates": [ -73.0209, 41.9735 ] } },
{ "type": "Feature", "properties": { "MonitoringLocationIdentifier": "16259", "MonitoringLocationName": "Aspetuck River", "MaxScore": 2, "MaxScoreYear": 2007.0, "RecentScore": 2, "RecentYear": 2013.0 }, "geometry": { "type": "Point", "coordinates": [ -73.3291, 41.2132 ] } },
{ "type": "Feature", "properties": { "MonitoringLocationIdentifier": "16260", "MonitoringLocationName": "Aspetuck River", "MaxScore": 3, "MaxScoreYear": 2008.0, "RecentScore": 2, "RecentYear": 2013.0 }, "geometry": { "type": "Point", "coordinates": [ -73.3247, 41.2589 ] } },
{ "type": "Feature", "properties": { "MonitoringLocationIdentifier": "16261", "MonitoringLocationName": "Aspetuck River", "MaxScore": 3, "MaxScoreYear": 2009.0, "RecentScore": 2, "RecentYear": 2013.0 }, "geometry": { "type": "Point", "coordinates": [ -73.3275, 41.2771 ] } },
{ "type": "Feature", "properties": { "MonitoringLocationIdentifier": "16262", "MonitoringLocationName": "Aspetuck River", "MaxScore": 4, "MaxScoreYear": 2007.0, "RecentScore": 2, "RecentYear": 2010.0 }, "geometry": { "type": "Point", "coordinates": [ -73.3327, 41.2865 ] } },
{ "type": "Feature", "properties": { "MonitoringLocationIdentifier": "16263", "MonitoringLocationName": "Saugatuck River", "MaxScore": 2, "MaxScoreYear": 2008.0, "RecentScore": 2, "RecentYear": 2008.0 }, "geometry": { "type": "Point", "coordinates": [ -73.4041, 41.3041 ] } },
{ "type": "Feature", "properties": { "MonitoringLocationIdentifier": "16264", "MonitoringLocationName": "West Branch Saugatuck River", "MaxScore": 1, "MaxScoreYear": 2008.0, "RecentScore": 1, "RecentYear": 2013.0 }, "geometry": { "type": "Point", "coordinates": [ -73.3889, 41.214 ] } },
{ "type": "Feature", "properties": { "MonitoringLocationIdentifier": "16265", "MonitoringLocationName": "Roaring Brook", "MaxScore": 5, "MaxScoreYear": 2007.0, "RecentScore": 5, "RecentYear": 2007.0 }, "geometry": { "type": "Point", "coordinates": [ -72.52573, 41.698068 ] } },